     2.11           OBSERVATION DATA    G (GPS)             RINEX VERSION / TYPE
teqc  2019Feb25     NGS Web             20230807 17:51:10UTCPGM / RUN BY / DATE
Linux 2.4.21-27.ELsmp|Opteron|gcc|Linux 64|=+               COMMENT
teqc  2019Feb25     NOAA/NOS/NGS/CORS   20230805 09:41:25UTCCOMMENT
teqc  2020Oct7      UNAVCO Archive Ops  20230805 01:03:58UTCCOMMENT
BIT 2 OF LLI FLAGS DATA COLLECTED UNDER A/S CONDITION       COMMENT
RINEX file created by UNAVCO GPS Archive.                   COMMENT
For more information contact archive-gps@unavco.org         COMMENT
Monument ID: 18011                                          COMMENT
UNAVCO 4-char name:   SEDR                                  COMMENT
4-char name from Log or data file: SEDR                     COMMENT
Monument location: 48.521558 -122.223848 29.8571            COMMENT
Visit ID: 123940                                            COMMENT
doi:10.7283/T5P84901                                        COMMENT
End of DB comments                                          COMMENT
input file: sedr202308040000a.tgd                           COMMENT
 SNR is mapped to RINEX snr flag value [0-9]                COMMENT
  L1 & L2: min(max(int(snr_dBHz/6), 0), 9)                  COMMENT
teqc.e edited: all SBAS satellites excluded                 COMMENT
teqc.e edited: all QZSS satellites excluded                 COMMENT
SEDR                                                        MARKER NAME
Qamar, Anthony      University of Washington                OBSERVER / AGENCY
4518249780          TRIMBLE NETRS       1.3-2               REC # / TYPE / VERS
0220061148          TRM29659.00     UNAV                    ANT # / TYPE
 -2256868.8670 -3580543.4240  4755508.0740                  APPROX POSITION XYZ
        0.0792        0.0000        0.0000                  ANTENNA: DELTA H/E/N
     1     1                                                WAVELENGTH FACT L1/2
     7    L1    L2    C1    P2    P1    S1    S2            # / TYPES OF OBSERV
    15.0000                                                 INTERVAL
teqc.w windowed: start @ 2023 Aug  4 15:00:00.000           COMMENT
teqc.w windowed:  end  @ 2023 Aug  4 23:00:00.000           COMMENT
teqc.w edited: all GLONASS satellites excluded              COMMENT
teqc.w edited: all SBAS satellites excluded                 COMMENT
teqc.w edited: all Galileo satellites excluded              COMMENT
teqc.w edited: all Beidou satellites excluded               COMMENT
teqc.w edited: all QZSS satellites excluded                 COMMENT
  2023     8     4    15     0    0.0000000     GPS         TIME OF FIRST OBS
    18                                                      LEAP SECONDS
                                                            END OF HEADER
 23  8  4 15  0  0.0000000  0  9G12G25G05G20G11G31G29G28G18
 -15624756.745 7 -11532717.63246  21902658.133    21902649.004
        46.800          37.800
 -24316207.898 8 -18901408.99247  20327877.461    20327870.676
        49.200          42.500
 -16610523.172 7 -12036883.97246  22032605.578    22032597.914
        45.600          36.100
 -20836398.117 8 -15042824.62046  21247758.102    21247748.504
        48.700          38.800
 -22300855.728 8 -17105477.48346  21442949.219    21442940.324
        48.500          38.600
   -603440.920 6  -4066240.56745  24213323.750    24213314.914
        38.700          34.900
 -14073252.981 7 -10715945.74246  21447917.500    21447908.898
        47.700          40.400
  -3638772.929 6  -2898382.26444  23525640.453    23525631.910
        39.200          26.200
   -592792.854 5                  25340319.008
        35.300
 23  8  4 15  0 15.0000000  0  9G12G25G05G20G11G31G29G28G18
 -15578517.290 7 -11496686.94646  21911456.641    21911448.098
        45.600          37.300
 -24303951.735 8 -18891858.75647  20330209.594    20330202.633
        50.000          43.000
 -16652703.324 7 -12069751.62346  22024578.977    22024570.961
        45.900          36.200
 -20845163.782 8 -15049655.00746  21246090.023    21246081.012
        49.300          39.100
 -22267973.370 7 -17079854.89546  21449206.227    21449198.152
        47.300          38.400
   -614496.928 6  -4074855.60346  24211221.414    24211211.758
        40.400          36.300
 -14104018.227 8 -10739918.65946  21442063.188    21442054.176
        48.100          40.900
  -3625064.212 6  -2887700.18944  23528249.234    23528241.160
        39.900          26.400
   -645808.694 6                  25330231.672
        37.400
 23  8  4 15  0 30.0000000  0  9G12G25G05G20G11G31G29G28G18
 -15532187.144 7 -11460585.59546  21920273.289    21920264.688
        46.300          37.900
 -24291546.227 8 -18882192.14147  20332569.914    20332563.305
        49.900          42.400
 -16694778.168 7 -12102537.21946  22016572.883    22016564.926
        46.300          36.800
 -20853782.954 8 -15056371.26946  21244449.813    21244440.918
        48.900          39.700
 -22235004.063 7 -17054164.55246  21455479.961    21455472.180
        47.200          38.200
   -625409.435 6  -4083358.85246  24209142.250    24209134.703
        38.900          36.800
 -14134718.841 8 -10763841.23146  21436221.352    21436212.105
        48.000          41.000
  -3611219.659 6  -2876912.25944  23530882.641    23530875.270
        38.800          26.500
   -698805.358 6                  25320145.641
        36.600
 23  8  4 15  0 45.0000000  0  9G12G25G05G20G11G31G29G28G18
 -15485766.394 7 -11424413.62946  21929106.813    21929097.859
        46.900          38.000
 -24278991.320 8 -18872409.11847  20334959.453    20334952.199
        49.300          42.600
 -16736747.068 7 -12135240.25446  22008586.063    22008578.691
        46.600          36.800
 -20862255.230 8 -15062973.05546  21242837.445    21242828.609
        48.200          39.100
 -22201947.968 7 -17028406.58546  21461770.063    21461762.516
        47.900          38.800
   -636178.297 6  -4091750.20046  24207092.758    24207085.094
        39.200          37.800
 -14165354.656 7 -10787713.30046  21430391.125    21430382.641
        47.300          41.500
  -3597239.361 6  -2866018.56344  23533544.094    23533535.961
        40.000          26.400
   -751782.607 5                  25310063.625
        35.100
 23  8  4 15  1  0.0000000  0  9G12G25G05G20G11G31G29G28G18
 -15439255.413 7 -11388171.36346  21937957.477    21937949.285
        47.000          37.600
 -24266287.244 8 -18862509.85447  20337376.938    20337370.094
        49.400          42.900
 -16778610.084 7 -12167860.79446  22000620.414    22000611.988
        46.400          36.900
 -20870580.876 8 -15069460.57846  21241253.539    21241244.352
        48.900          38.900
 -22168805.521 7 -17002581.32346  21468077.164    21468069.148
        47.100          38.700
   -646803.559 6  -4100029.61746  24205072.852    24205063.547
        40.800          38.000
 -14195925.634 7 -10811534.84446  21424573.539    21424565.172
        47.300          40.500
  -3583123.625 6  -2855019.31244  23536230.000    23536221.809
        39.400          26.400
   -804740.401 5                  25299984.984
        34.600
 23  8  4 15  1 15.0000000  0  9G12G25G05G20G11G31G29G28G18
 -15392655.900 7 -11351860.11346  21946825.336    21946817.027
        46.200          37.900
 -24253435.393 8 -18852495.44847  20339822.523    20339815.973
        49.200          42.700
 -16820368.037 7 -12200399.47146  21992674.023    21992666.008
        46.200          36.600
 -20878761.072 8 -15075834.76146  21239697.250    21239687.535
        48.900          39.200
 -22135578.276 8 -16976689.97946  21474400.156    21474392.023
        48.200          38.600
   -657286.535 6  -4108198.17746  24203077.367    24203068.590
        40.400          38.000
 -14226432.916 7 -10835306.76246  21418768.531    21418759.871
        47.900          40.800
  -3568873.990 6  -2843915.73544  23538940.523    23538933.152
        38.600          25.100
   -857679.881 5                  25289909.688
        34.800
 23  8  4 15  1 30.0000000  0  9G12G25G05G20G11G31G29G28G18
 -15345966.239 7 -11315478.61046  21955709.844    21955701.418
        46.000          38.500
 -24240433.930 8 -18842364.44747  20342296.727    20342290.117
        49.300          42.500
 -16862018.488 7 -12232854.36046  21984747.906    21984740.242
        47.200          37.400
 -20886793.832 8 -15082094.07346  21238168.289    21238158.867
        48.800          39.100
 -22102264.568 7 -16950731.28546  21480739.672    21480731.715
        47.600          39.000
   -667625.068 6  -4116254.20446  24201108.789    24201101.594
        38.600          37.200
 -14256874.527 7 -10859027.50346  21412975.547    21412966.594
        47.900          40.600
  -3554488.747 6  -2832706.48044  23541679.000    23541670.047
        37.200          24.200
   -910599.035 5                  25279839.711
        31.500
 23  8  4 15  1 45.0000000  0  9G12G25G05G20G11G31G29G28G18
 -15299188.453 7 -11279028.43246  21964611.594    21964603.227
        46.400          37.600
 -24227284.635 8 -18832118.26747  20344799.078    20344792.352
        49.500          43.100
 -16903563.024 7 -12265226.71046  21976842.234    21976834.629
        46.200          36.900
 -20894680.783 8 -15088239.75846  21236667.305    21236658.410
        48.300          39.100
 -22068866.413 7 -16924706.76746  21487095.039    21487086.906
        46.800          38.800
   -677821.037 6  -4124199.10346  24199169.555    24199161.656
        40.500          37.800
 -14287252.259 7 -10882698.47046  21407194.563    21407185.961
        47.700          40.200
  -3539969.827 6  -2821393.05444  23544441.781    23544433.824
        39.400          25.300
   -963499.391 5                  25269772.844
        31.500
 23  8  4 15  2  0.0000000  0  9G12G25G05G20G11G31G29G28G18
 -15252316.354 7 -11242504.77546  21973531.180    21973522.520
        46.600          38.500
 -24213981.207 8 -18821751.97547  20347330.445    20347323.777
        49.100          42.800
 -16944994.681 7 -12297511.12546  21968957.734    21968949.953
        46.500          36.900
 -20902415.542 8 -15094266.85446  21235195.352    21235186.516
        48.500          39.100
 -22035377.626 7 -16898611.63446  21493467.867    21493459.559
        47.300          38.400
   -687867.854 6  -4132027.79346  24197257.078    24197250.059
        39.700          37.600
 -14317559.256 7 -10906314.32946  21401427.250    21401418.297
        47.100          40.900
  -3525311.021 6  -2809970.63044  23547230.047    23547223.379
        38.300          25.400
  -1016374.47415                  25259711.125
        30.500
 23  8  4 15  2 15.0000000  0  9G12G25G05G20G11G31G29G28G18
 -15205366.393 7 -11205920.44046  21982465.422    21982456.879
        46.200          37.600
 -24200539.823 8 -18811278.19647  20349888.055    20349881.504
        49.100          42.600
 -16986329.612 7 -12329720.16246  21961092.109    21961084.563
        47.000          37.000
 -20910014.142 8 -15100187.84746  21233749.352    21233740.398
        48.500          39.100
 -22001814.621 7 -16872458.66646  21499855.125    21499846.641
        47.600          38.300
   -697781.762 6  -4139752.90946  24195371.055    24195362.629
        40.200          37.600
 -14347811.614 7 -10929887.60546  21395670.305    21395662.055
        47.000          40.500
  -3510528.645 6  -2798451.93844  23550043.125    23550036.457
        39.100          24.500
  -1069240.17915                  25249652.547
        33.900
 23  8  4 15  2 30.0000000  0  9G12G25G05G20G11G31G29G28G18
 -15158323.709 7 -11169263.85546  21991417.359    21991408.875
        47.700          37.400
 -24186945.520 8 -18800685.25347  20352475.375    20352468.648
        48.300          42.800
 -17027552.374 7 -12361841.77746  21953247.711    21953240.047
        45.700          37.000
 -20917461.370 8 -15105990.89446  21232332.664    21232323.008
        49.100          38.600
 -21968162.579 7 -16846236.33546  21506258.453    21506250.496
        47.500          38.200
   -707547.560 6  -4147362.62046  24193514.141    24193504.777
        41.200          37.200
 -14377994.259 7 -10953406.54746  21389926.742    21389918.668
        46.600          40.300
  -3495607.846 6  -2786825.39444  23552882.945    23552875.926
        37.700          25.800
  -1122081.351 5                  25239597.523
        33.000
 23  8  4 15  2 45.0000000  0  9G12G25G05G20G11G31G29G28G18
 -15111193.600 7 -11132539.12846  22000385.070    22000377.113
        46.800          38.000
 -24173203.523 8 -18789977.22347  20355089.906    20355083.473
        48.200          42.700
 -17068667.549 7 -12393879.58346  21945423.430    21945415.648
        46.200          36.800
 -20924762.440 8 -15111680.04546  21230943.320    21230933.664
        49.500          39.200
 -21934426.911 7 -16819948.82646  21512678.453    21512670.320
        47.800          38.700
   -717170.367 6  -4154860.93846  24191681.188    24191673.582
        39.200          36.100
 -14408111.973 7 -10976874.90346  21384195.758    21384187.098
        47.500          41.200
  -3480553.914 6  -2775095.04644  23555748.531    23555740.164
        39.400          27.600
  -1174902.834 4                  25229543.469
        28.600
 23  8  4 15  3  0.0000000  0  9G12G25G05G20G11G31G29G28G18
 -15063969.931 7 -11095741.52346  22009372.320    22009363.777
        46.700          38.100
 -24159307.318 8 -18779149.03447  20357734.492    20357728.059
        48.000          42.900
 -17109668.197 7 -12425828.14346  21937621.852    21937613.484
        46.500          37.200
 -20931910.774 8 -15117250.18946  21229582.820    21229573.457
        49.100          38.900
 -21900601.331 7 -16793591.26046  21519114.898    21519106.824
        46.700          39.000
   -726643.539 6  -4162242.64145  24189876.742    24189871.363
        37.900          35.100
 -14438158.243 7 -11000287.58846  21378477.984    21378470.086
        47.500          41.200
  -3465360.669 6  -2763256.13243  23558637.984    23558630.730
        36.700          22.500
  -1227698.13114                  25219496.023
        27.600
 23  8  4 15  3 15.0000000  0  9G12G25G05G20G11G31G29G28G18
 -15016667.902 7 -11058882.84446  22018373.242    22018365.344
        47.500          37.500
 -24145271.870 8 -18768212.34547  20360405.688    20360398.668
        48.900          43.000
 -17150569.111 7 -12457698.97346  21929838.406    21929830.449
        46.800          37.000
 -20938921.075 8 -15122712.77246  21228248.203    21228239.484
        48.900          39.600
 -21866700.894 7 -16767175.35946  21525566.320    21525558.422
        47.800          38.600
   -735981.801 6  -4169519.20345  24188103.250    24188093.945
        41.200          35.400
 -14468147.748 7 -11023656.03546  21372771.609    21372763.301
        47.800          41.600
  -3450042.964 6  -2751320.33843  23561554.203    23561545.484
        37.000          23.500
  -1280481.63014                  25209454.297
        29.600
 23  8  4 15  3 30.0000000  0  9G12G25G05G20G11G31G29G28G18
 -14969276.139 7 -11021954.23946  22027392.336    22027383.031
        46.800          37.700
 -24131085.684 8 -18757158.19947  20363105.055    20363098.563
        49.100          43.200
 -17191358.260 7 -12489482.70946  21922076.445    21922068.781
        46.600          36.800
 -20945781.776 8 -15128058.77946  21226943.070    21226934.234
        48.700          38.900
 -21832714.341 7 -16740692.34746  21532033.297    21532025.340
        47.600          38.600
   -745173.548 6  -4176681.60046  24186353.453    24186344.734
        41.100          36.100
 -14498068.757 7 -11046971.11446  21367077.734    21367069.074
        47.500          41.900
  -3434589.564 6  -2739278.78244  23564494.914    23564487.133
        38.300          26.000
  -1333241.84215                  25199415.242
        33.300
 23  8  4 15  3 45.0000000  0  9G12G25G05G20G11G31G29G28G18
 -14921796.454 7 -10984957.12246  22036426.781    22036418.531
        46.900          38.200
 -24116750.502 8 -18745987.93947  20365832.820    20365826.387
        49.600          42.900
 -17232036.624 7 -12521180.13346  21914335.828    21914327.578
        47.200          36.500
 -20952494.344 8 -15133289.35346  21225665.953    21225656.531
        48.800          39.400
 -21798643.545 7 -16714143.70346  21538516.906    21538508.949
        47.200          38.500
   -754220.446 6  -4183731.15046  24184630.742    24184623.020
        39.900          36.300
 -14527922.866 7 -11070234.07246  21361396.719    21361388.234
        47.400          41.300
  -3419002.276 6  -2727132.84744  23567460.961    23567453.648
        38.800          26.400
  -1385980.279 5                  25189377.008
        30.700
 23  8  4 15  4  0.0000000  0  9G12G25G05G20G11G31G29G28G18
 -14874231.056 7 -10947893.22446  22045478.930    22045469.508
        46.800          37.700
 -24102268.204 8 -18734703.05547  20368588.641    20368582.207
        48.200          42.900
 -17272605.602 7 -12552792.32246  21906615.508    21906607.844
        46.600          37.000
 -20959060.573 8 -15138405.90446  21224416.031    21224406.727
        48.600          39.800
 -21764490.584 7 -16687531.02846  21545016.094    21545008.078
        47.300          38.700
   -763124.167 6  -4190669.17345  24182938.438    24182928.840
        41.000          35.600
 -14557711.724 7 -11093446.16346  21355728.109    21355719.215
        47.600          40.800
  -3403283.097 6  -2714884.18244  23570452.750    23570445.086
        36.900          25.800
  -1438698.405 5                  25179344.867
        31.500
 23  8  4 15  4 15.0000000  0  9G12G25G05G20G11G31G29G28G18
 -14826578.975 7 -10910761.76446  22054545.977    22054538.020
        46.400          38.000
 -24087637.627 8 -18723302.62147  20371373.070    20371366.168
        49.200          42.600
 -17313063.988 7 -12584318.32946  21898916.328    21898908.137
        47.000          37.400
 -20965479.332 8 -15143407.53846  21223194.789    21223186.246
        49.300          39.800
 -21730254.455 7 -16660853.54946  21551531.148    21551523.250
        47.300          38.300
   -771883.530 6  -4197494.59145  24181270.031    24181262.074
        39.500          34.700
 -14587433.798 7 -11116606.22346  21350071.953    21350063.586
        47.500          40.600
  -3387431.051 6  -2702531.97944  23573469.594    23573461.344
        38.100          24.300
  -1491395.048 5                  25169317.063
        31.600
 23  8  4 15  4 30.0000000  0  9G12G25G05G20G11G31G29G28G18
 -14778840.747 7 -10873563.20246  22063631.133    22063622.414
        47.000          38.300
 -24072859.171 8 -18711786.96247  20374184.922    20374178.605
        49.300          43.200
 -17353411.750 7 -12615758.15046  21891239.594    21891230.523
        47.500          37.500
 -20971750.934 8 -15148294.51046  21222001.281    21221992.855
        48.900          39.500
 -21695935.717 7 -16634111.70846  21558061.641    21558053.449
        47.100          38.300
   -780498.765 6  -4204207.77345  24179630.906    24179622.832
        40.100          35.400
 -14617089.348 7 -11139714.44646  21344428.883    21344420.340
        47.600          41.500
  -3371446.591 6  -2690076.57444  23576509.828    23576502.809
        37.700          25.800
  -1544070.153 5                  25159293.844
        33.100
 23  8  4 15  4 45.0000000  0  9G12G25G05G20G11G31G29G28G18
 -14731017.229 7 -10836298.18146  22072731.047    22072723.207
        46.800          37.500
 -24057933.484 8 -18700156.58047  20377025.703    20377018.859
        48.800          42.500
 -17393648.691 7 -12647111.59946  21883581.711    21883573.930
        46.600          37.000
 -20977875.732 8 -15153067.09046  21220836.070    21220827.059
        49.000          39.400
 -21661535.245 7 -16607306.16046  21564607.984    21564599.969
        47.100          37.800
   -788970.381 6  -4210809.03745  24178018.594    24178010.285
        40.700          35.700
 -14646678.910 8 -11162771.25446  21338798.156    21338789.672
        48.800          41.700
  -3355330.546 6  -2677518.63844  23579576.938    23579569.508
        38.400          26.100
  -1596724.249 5                  25149274.789
        33.900
 23  8  4 15  5  0.0000000  0  9G12G25G05G20G11G31G29G28G18
 -14683108.429 7 -10798966.71046  22081847.859    22081839.551
        46.900          37.100
 -24042860.390 8 -18688411.33847  20379893.773    20379887.457
        49.800          43.100
 -17433774.588 7 -12678378.53646  21875945.930    21875938.324
        47.300          37.300
 -20983853.376 8 -15157725.00246  21219698.477    21219689.934
        48.600          39.800
 -21627052.995 7 -16580436.89646  21571169.641    21571161.508
        47.000          37.900
   -797298.076 6  -4217298.12745  24176434.320    24176425.250
        41.000          35.600
 -14676202.073 8 -11185776.32346  21333179.930    21333171.445
        48.600          41.300
  -3339082.839 6  -2664858.09544  23582669.523    23582661.859
        38.600          25.400
  -1649356.907 6    -20907.30852  25139258.961    25139254.348
        36.000          17.800
 23  8  4 15  5 15.0000000  0  9G12G25G05G20G11G31G29G28G18
 -14635114.478 7 -10761568.85846  22090980.586    22090972.805
        47.000          36.900
 -24027639.845 8 -18676551.18647  20382790.242    20382783.281
        50.000          43.100
 -17473789.201 7 -12709558.75146  21868331.945    21868323.461
        47.600          38.400
 -20989683.624 8 -15162268.05546  21218588.859    21218579.848
        49.500          40.000
 -21592489.020 7 -16553503.95846  21577747.063    21577738.871
        47.500          37.400
   -805481.608 6  -4223674.91146  24174875.445    24174868.191
        39.900          36.400
 -14705658.519 8 -11208729.41246  21327574.414    21327565.871
        48.600          41.500
  -3322703.470 6  -2652095.03444  23585786.008    23585779.105
        38.200          25.800
  -1701967.747 6    -61902.75843  25129248.086    25129243.941
        37.400          19.000
 23  8  4 15  5 30.0000000  0  9G12G25G05G20G11G31G29G28G18
 -14587035.998 7 -10724105.15346  22100130.266    22100121.723
        46.500          37.000
 -24012272.368 8 -18664576.54647  20385714.859    20385708.191
        49.600          43.200
 -17513692.282 7 -12740652.05946  21860737.961    21860730.824
        46.600          38.200
 -20995366.963 8 -15166696.64746  21217507.391    21217498.789
        48.600          39.100
 -21557844.104 7 -16526507.94846  21584339.813    21584331.621
        47.300          38.100
   -813521.505 6  -4229939.79146  24173347.313    24173338.359
        41.400          37.200
 -14735048.537 8 -11231630.72446  21321981.742    21321973.492
        48.600          41.300
  -3306193.220 6  -2639229.94144  23588927.555    23588920.945
        37.500          24.200
  -1754557.174 6   -102881.46143  25119241.227    25119236.145
        37.500          18.300
 23  8  4 15  5 45.0000000  0  9G12G25G05G20G11G31G29G28G18
 -14538872.935 7 -10686575.55246  22109295.117    22109287.219
        46.600          37.100
 -23996757.707 8 -18652487.21747  20388666.930    20388660.203
        49.900          42.800
 -17553482.771 7 -12771657.62846  21853166.172    21853158.508
        47.000          37.800
 -21000903.036 8 -15171010.47646  21216453.977    21216444.906
        48.800          39.400
 -21523118.083 7 -16499448.72646  21590947.438    21590939.480
        46.900          38.200
   -821417.315 6  -4236092.37346  24171844.531    24171836.105
        41.400          36.800
 -14764371.667 8 -11254479.92846  21316402.094    21316393.434
        48.400          41.600
  -3289551.919 6  -2626262.69044  23592094.609    23592087.414
        38.900          24.600
  -1807124.541 5   -143842.99042  25109237.484    25109233.047
        35.300          16.900
 23  8  4 15  6  0.0000000  0  9G12G25G05G20G11G31G29G28G18
 -14490626.059 7 -10648980.62346  22118475.836    22118468.055
        46.600          36.800
 -23981096.339 8 -18640283.56747  20391647.313    20391640.645
        49.500          42.800
 -17593161.120 7 -12802575.84146  21845615.398    21845608.145
        47.200          37.600
 -21006292.234 8 -15175209.85146  21215428.406    21215419.512
        48.600          38.900
 -21488311.644 7 -16472326.84846  21597571.383    21597563.543
        47.200          38.000
   -829169.352 6  -4242132.90446  24170368.336    24170361.141
        40.000          36.700
 -14793628.145 8 -11277277.18346  21310834.180    21310826.457
        48.300          41.200
  -3272780.125 6  -2613193.77244  23595286.602    23595278.293
        39.500          26.200
  -1859670.143 5   -184787.60242  25099238.844    25099233.703
        34.700          16.900
 23  8  4 15  6 15.0000000  0  9G12G25G05G20G11G31G29G28G18
 -14442294.209 7 -10611319.50646  22127673.859    22127665.434
        45.200          37.000
 -23965286.952 8 -18627964.58247  20394655.578    20394649.203
        49.100          42.400
 -17632725.615 7 -12833405.30846  21838087.430    21838078.887
        47.400          38.400
 -21011533.046 8 -15179293.61046  21214431.492    21214421.777
        48.800          39.800
 -21453423.600 7 -16445141.38746  21604210.563    21604202.547
        45.800          38.200
   -836776.203 6  -4248060.35746  24168920.750    24168913.262
        40.700          36.400
 -14822816.468 8 -11300021.33346  21305280.336    21305272.145
        48.300          41.300
  -3255876.665 6  -2600022.23944  23598503.109    23598495.445
        38.500          25.400
  -1912192.414 5                  25089244.414
        35.000
 23  8  4 15  6 30.0000000  0  9G12G25G05G20G11G31G29G28G18
 -14393879.309 7 -10573593.66746  22136886.617    22136878.777
        46.600          36.400
 -23949331.353 8 -18615531.66347  20397692.594    20397685.398
        50.100          42.600
 -17672177.624 7 -12864147.12246  21830579.422    21830571.641
        47.300          37.600
 -21016627.091 8 -15183263.00546  21213461.164    21213452.914
        48.100          39.700
 -21418455.887 7 -16417893.84546  21610864.430    21610856.824
        47.500          38.300
   -844239.528 6  -4253875.93845  24167502.984    24167492.801
        41.800          35.900
 -14851938.222 8 -11322713.61146  21299738.398    21299729.855
        48.800          41.500
  -3238843.417 6  -2586749.60644  23601742.789    23601737.176
        36.400          24.100
  -1964692.917 5   -211060.33652  25079253.516    25079246.730
        33.900          15.600
 23  8  4 15  6 45.0000000  0  9G12G25G05G20G11G31G29G28G18
 -14345379.856 7 -10535801.93446  22146115.305    22146107.406
        46.200          36.500
 -23933227.934 8 -18602983.57347  20400756.602    20400749.758
        50.000          43.100
 -17711514.973 7 -12894799.59446  21823093.992    21823085.742
        46.900          37.600
 -21021572.665 8 -15187116.69846  21212520.883    21212512.047
        49.200          39.900
 -21383407.128 7 -16390583.14046  21617534.273    21617526.316
        46.700          37.800
   -851557.655 6  -4259578.42045  24166107.430    24166099.824
        39.000          34.300
 -14880991.412 8 -11345352.46946  21294209.992    21294201.391
        48.700          41.200
  -3221678.991 6  -2573374.81344  23605009.609    23605003.410
        37.100          24.000
  -2017169.633 5   -251951.26542  25069263.344    25069260.664
        30.500          14.800
 23  8  4 15  7  0.0000000  0  9G12G25G05G20G11G31G29G28G18
 -14296796.387 7 -10497944.74346  22155360.563    22155353.191
        47.000          37.300
 -23916976.973 8 -18590320.50147  20403848.539    20403841.695
        49.300          43.200
 -17750737.643 7 -12925362.70946  21815630.133    21815621.941
        47.500          38.000
 -21026369.937 8 -15190854.84646  21211608.078    21211599.066
        49.100          39.700
 -21348277.709 7 -16363209.58946  21624218.711    21624210.813
        46.800          38.600
   -858730.657 6  -4265167.77545  24164741.758    24164735.031
        38.200          34.100
 -14909976.159 8 -11367937.98946  21288694.117    21288685.047
        48.100          41.700
  -3204383.718 6  -2559898.00444  23608302.039    23608294.902
        38.100          26.700
  -2069622.727 5   -292823.75142  25059283.203    25059279.410
        32.000          16.300
 23  8  4 15  7 15.0000000  0  9G12G25G05G20G11G31G29G28G18
 -14248131.401 7 -10460024.02846  22164621.477    22164613.754
        45.900          36.600
 -23900580.651 8 -18577544.16747  20406968.945    20406961.926
        49.200          42.700
 -17789847.171 7 -12955837.67146  21808187.648    21808180.043
        47.800          38.300
 -21031020.909 8 -15194478.98346  21210722.813    21210713.742
        48.400          39.600
 -21313069.980 7 -16335775.02646  21630918.672    21630911.008
        46.800          37.500
   -865760.690 6  -4270645.68445  24163407.188    24163397.707
        39.100          34.400
 -14938894.410 8 -11390471.70846  21283191.102    21283182.852
        48.600          41.900
  -3186959.967 6  -2546321.07644  23611618.641    23611610.215
        39.400          26.700
  -2122054.199 5   -333679.42442  25049306.766    25049302.445
        34.300          15.600
 23  8  4 15  7 30.0000000  0  9G12G25G05G20G11G31G29G28G18
 -14199383.908 7 -10422039.04246  22173898.102    22173890.262
        45.700          36.300
 -23884037.896 8 -18564653.71547  20410116.805    20410110.195
        49.400          42.500
 -17828841.946 7 -12986223.19946  21800767.086    21800759.188
        47.600          37.800
 -21035524.329 8 -15197988.14646  21209866.008    21209856.879
        49.700          39.400
 -21277783.005 7 -16308278.70146  21637633.617    21637625.836
        47.300          38.600
   -872646.434 6  -4276011.19045  24162094.102    24162087.609
        37.900          34.300
 -14967744.778 8 -11412952.52046  21277701.266    21277692.957
        48.800          41.600
  -3169406.751 6  -2532643.24944  23614957.180    23614950.570
        38.100          25.200
  -2174462.570 5   -374517.08442  25039333.469    25039329.559
        34.400          16.300
 23  8  4 15  7 45.0000000  0  9G12G25G05G20G11G31G29G28G18
 -14150553.080 7 -10383989.10246  22183189.906    22183182.301
        46.100          36.000
 -23867347.688 8 -18551648.38347  20413293.117    20413286.508
        49.600          42.900
 -17867720.904 7 -13016518.49846  21793369.234    21793360.809
        47.000          37.900
 -21039879.129 8 -15201381.50246  21209037.188    21209028.234
        49.400          40.000
 -21242415.976 7 -16280719.99846  21644364.516    21644355.738
        47.300          38.400
   -879386.604 6  -4281263.27245  24160811.469    24160804.566
        39.200          33.800
 -14996526.186 8 -11435379.59947  21272224.281    21272216.031
        48.000          42.100
  -3151723.172 6  -2518863.85843  23618321.336    23618315.371
        36.700          23.000
  -2226846.640 5   -415335.85142  25029365.508    25029362.184
        34.700          15.600
 23  8  4 15  8  0.0000000  0  9G12G25G05G20G11G31G29G28G18
 -14101641.708 7 -10345876.40346  22192497.695    22192489.680
        45.700          36.800
 -23850512.754 8 -18538530.28047  20416496.234    20416490.035
        49.300          42.900
 -17906486.117 7 -13046725.15646  21785992.180    21785984.223
        46.600          38.000
 -21044087.847 8 -15204661.02246  21208236.391    21208226.910
        49.100          39.700
 -21206971.662 7 -16253101.07246  21651108.734    21651100.719
        47.100          37.500
   -885983.966 6  -4286404.07645  24159558.125    24159549.465
        41.600          34.700
 -15025240.992 7 -11457754.77247  21266759.750    21266751.852
        47.500          42.200
  -3133912.055 6  -2504985.09544  23621713.094    23621704.609
        40.000          24.200
  -2279208.816 5   -456137.58342  25019402.633    25019397.195
        35.000          16.300
 23  8  4 15  8 15.0000000  0  9G12G25G05G20G11G31G29G28G18
 -14052648.706 7 -10307700.07946  22201820.531    22201812.867
        45.500          36.500
 -23833531.779 8 -18525298.36547  20419728.164    20419721.672
        49.700          42.600
 -17945135.796 7 -13076841.77546  21778637.188    21778629.289
        46.600          38.000
 -21048149.032 8 -15207825.59346  21207463.133    21207454.238
        48.500          39.400
 -21171448.928 7 -16225421.05046  21657868.422    21657860.055
        47.400          37.700
   -892437.200 6  -4291432.59645  24158329.352    24158321.219
        40.900          35.600
 -15053887.671 8 -11480076.85147  21261308.984    21261300.441
        48.100          42.400
  -3115972.193 6  -2491006.01344  23625126.117    23625117.984
        39.900          26.500
  -2331547.571 6   -496920.94442  25009443.031    25009437.125
        37.900          15.600
 23  8  4 15  8 30.0000000  0  9G12G25G05G20G11G31G29G28G18
 -14003573.397 7 -10269459.64146  22211160.125    22211152.051
        46.700          36.600
 -23816403.845 8 -18511951.94947  20422987.156    20422981.074
        49.100          42.500
 -17983668.532 7 -13106867.26146  21771305.063    21771296.402
        46.500          37.300
 -21052061.719 8 -15210874.43646  21206718.477    21206709.934
        48.800          39.600
 -21135847.086 7 -16197679.38146  21664643.000    21664635.277
        47.700          37.800
   -898745.207 6  -4296347.97445  24157129.336    24157120.207
        40.700          35.500
 -15082465.145 7 -11502345.01947  21255870.781    21255862.180
        47.600          42.200
  -3097902.947 6  -2476926.07844  23628564.000    23628556.922
        39.000          26.100
  -2383861.767 6   -537685.24942  24999486.891    24999481.984
        37.000          16.300
 23  8  4 15  8 45.0000000  0  9G12G25G05G20G11G31G29G28G18
 -13954417.409 7 -10231156.32246  22220513.352    22220505.512
        45.200          36.000
 -23799130.506 8 -18498492.22247  20426274.563    20426267.836
        49.300          42.900
 -18022085.429 7 -13136802.49446  21763994.016    21763986.234
        46.500          37.800
 -21055827.341 8 -15213808.69246  21206002.211    21205992.965
        48.800          39.100
 -21100167.731 7 -16169877.31246  21671433.289    21671424.863
        47.100          37.400
   -904909.335 6  -4301151.22445  24155956.375    24155948.008
        41.300          35.300
 -15110974.714 7 -11524560.27047  21250445.766    21250437.047
        47.500          42.100
  -3079705.835 6  -2462746.55844  23632028.477    23632020.227
        39.000          25.400
  -2436152.631 6   -578431.32642  24989537.445    24989531.246
        36.200          16.900
 23  8  4 15  9  0.0000000  0  9G12G25G05G20G11G31G29G28G18
 -13905180.147 7 -10192789.68345  22229883.219    22229875.320
        45.300          35.700
 -23781710.924 8 -18484918.55047  20429589.023    20429582.766
        49.500          42.800
 -18060385.291 7 -13166646.52846  21756706.156    21756698.141
        47.100          38.100
 -21059444.778 7 -15216627.47846  21205313.602    21205304.883
        47.900          39.000
 -21064410.198 7 -16142014.31346  21678237.734    21678229.426
        46.600          37.700
   -910928.627 6  -4305841.54945  24154809.109    24154802.500
        39.400          34.700
 -15139415.122 8 -11546721.63547  21245033.922    21245024.910
        48.100          42.000
  -3061380.108 6  -2448466.83944  23635515.586    23635507.395
        39.400          26.100
  -2488418.995 5   -619158.38342  24979589.117    24979585.441
        34.100          16.300
 23  8  4 15  9 15.0000000  0  9G12G25G05G20G11G31G29G28G18
 -13855861.592 7 -10154359.69646  22239268.445    22239260.664
        46.700          36.300
 -23764144.923 8 -18471230.78147  20432931.906    20432925.355
        48.700          42.300
 -18098567.445 7 -13196398.84846  21749440.117    21749432.570
        46.700          37.700
 -21062913.820 8 -15219330.62546  21204653.820    21204644.516
        49.200          39.400
 -21028574.462 7 -16114090.38846  21685056.664    21685048.531
        46.600          38.200
   -916802.696 6  -4310418.74645  24153692.969    24153684.602
        39.000          34.600
 -15167786.092 7 -11568828.89946  21239634.461    21239626.035
        47.900          41.700
  -3042925.792 6  -2434086.87543  23639025.422    23639018.871
        38.500          23.400
  -2540660.491 5   -659866.02242  24969646.359    24969644.031
        32.800          16.300
 23  8  4 15  9 30.0000000  0  9G12G25G05G20G11G31G29G28G18
 -13806462.840 7 -10115867.23446  22248668.617    22248660.895
        45.200          36.100
 -23746433.468 8 -18457429.66547  20436302.641    20436295.621
        49.300          42.300
 -18136632.730 7 -13226060.08746  21742195.781    21742188.762
        46.900          38.600
 -21066235.201 8 -15221918.72246  21204021.586    21204012.750
        48.900          39.400
 -20992661.674 7 -16086106.41946  21691891.172    21691882.863
        47.200          38.000
   -922532.482 6  -4314883.51445  24152601.242    24152594.516
        38.800          34.000
 -15196088.232 8 -11590882.51946  21234249.117    21234240.633
        48.000          41.700
  -3024344.021 6  -2419607.56443  23642561.648    23642554.570
        38.400          23.000
  -2592877.891 5   -700554.85442  24959709.758    24959708.133
        30.300          14.800
 23  8  4 15  9 45.0000000  0  9G12G25G05G20G11G31G29G28G18
 -13756983.125 7 -10077311.63346  22258084.594    22258075.934
        44.300          36.500
 -23728575.671 8 -18443514.52047  20439700.727    20439693.824
        48.200          42.500
 -18174579.423 7 -13255628.92146  21734975.547    21734967.648
        47.000          38.000
 -21069408.017 8 -15224391.04346  21203417.711    21203409.168
        48.400          39.500
 -20956671.011 7 -16058061.77146  21698739.711    21698731.520
        46.800          37.600
   -928116.914 6  -4319234.99945  24151539.398    24151531.793
        39.700          34.800
 -15224320.502 7 -11612881.69646  21228876.961    21228868.242
        47.900          41.700
  -3005633.930 6  -2405028.29143  23646122.758    23646114.273
        38.100          22.500
  -2645069.929 5   -741223.93742  24949778.461    24949776.719
        32.300          14.800
 23  8  4 15 10  0.0000000  0  9G12G25G05G20G11G31G29G28G18
 -13707424.067 7 -10038694.23346  22267514.961    22267507.355
        45.900          36.000
 -23710572.914 8 -18429486.42847  20443126.148    20443119.539
        48.800          42.400
 -18212408.325 7 -13285105.97346  21727776.867    21727769.496
        46.700          38.800
 -21072433.514 8 -15226748.57846  21202842.703    21202833.223
        48.100          39.600
 -20920604.043 7 -16029957.67246  21705602.633    21705595.438
        46.800          38.200
   -933557.215 6  -4323474.22446  24150505.156    24150496.320
        41.900          36.500
 -15252483.947 8 -11634827.24246  21223517.867    21223509.090
        48.800          41.600
  -2986797.053 6  -2390350.23044  23649706.672    23649700.063
        38.500          26.300
  -2697237.67714   -781874.07052  24939850.930    24939849.363
        29.100          14.800
 23  8  4 15 10 15.0000000  0  9G12G25G05G20G11G31G29G28G18
 -13657786.661 7 -10000015.79446  22276960.367    22276953.406
        45.100          36.300
 -23692426.121 8 -18415346.09347  20446579.570    20446572.961
        49.500          42.600
 -18250120.284 7 -13314491.89846  21720600.836    21720592.527
        47.000          38.700
 -21075312.397 8 -15228991.86546  21202293.961    21202285.242
        48.900          39.900
 -20884461.791 7 -16001794.90046  21712480.273    21712472.609
        46.200          37.700
   -938854.296 6  -4327601.83946  24149497.133    24149488.238
        41.600          36.200
 -15280579.225 8 -11656719.67046  21218170.883    21218162.516
        48.300          41.900
  -2967834.417 6  -2375574.21543  23653316.086    23653308.832
        38.300          23.500
  -2749381.88315                  24929930.367
        32.300
 23  8  4 15 10 30.0000000  0  9G12G25G05G20G11G31G29G28G18
 -13608070.477 7  -9961275.95745  22286421.828    22286414.340
        45.700          35.500
 -23674134.547 8 -18401092.92747  20450060.195    20450053.586
        48.600          42.100
 -18287713.946 7 -13343785.65346  21713446.609    21713438.652
        47.900          39.000
 -21078043.732 8 -15231120.18146  21201774.875    21201765.688
        49.500          39.800
 -20848243.652 7 -15973573.00146  21719372.352    21719364.512
        47.200          37.400
   -944007.185 7  -4331617.07646  24148516.961    24148508.125
        42.000          36.600
 -15308605.640 8 -11678558.44347  21212838.000    21212829.457
        48.200          42.500
  -2948745.502 6  -2360699.76044  23656948.813    23656941.500
        37.900          26.200
  -2801501.496 5   -825665.55352  24920012.898    24920006.523
        31.900          16.300
 23  8  4 15 10 45.0000000  0  9G12G25G05G20G11G31G29G28G18
 -13558275.405 7  -9922474.64545  22295897.688    22295889.262
        45.300          35.500
 -23655697.999 8 -18386726.80947  20453568.430    20453562.230
        48.600          42.100
 -18325188.915 7 -13372986.91346  21706315.117    21706307.277
        47.000          39.100
 -21080627.328 8 -15233133.37046  21201282.789    21201273.660
        48.500          40.000
 -20811949.626 7 -15945291.96246  21726279.383    21726271.191
        47.000          37.400
   -949015.644 6  -4335519.80346  24147562.367    24147555.055
        41.700          36.300
 -15336562.531 8 -11700343.03046  21207517.547    21207509.004
        48.100          41.900
  -2929530.103 6  -2345726.77544  23660604.836    23660598.168
        38.100          27.100
  -2853596.014 5   -866258.61742  24910099.625    24910094.070
        33.400          16.300
 23  8  4 15 11  0.0000000  0  9G12G25G05G20G11G31G29G28G18
 -13508400.348 7  -9883611.01345  22305388.492    22305380.066
        46.100          35.600
 -23637115.255 8 -18372246.77147  20457105.164    20457098.086
        48.900          42.400
 -18362543.498 7 -13402094.36546  21699206.867    21699199.262
        47.500          38.900
 -21083061.722 8 -15235030.30946  21200819.844    21200810.656
        49.300          40.200
 -20775578.545 7 -15916950.88946  21733200.133    21733192.059
        46.500          38.100
   -953878.271 6  -4339308.86745  24146636.711    24146630.277
        40.600          35.300
 -15364448.262 8 -11722072.17646  21202210.977    21202202.727
        49.200          41.900
  -2910187.184 6  -2330654.39344  23664286.031    23664278.367
        39.600          25.100
  -2905664.00814   -906831.02952  24900188.406    24900186.254
        28.900          16.300
 23  8  4 15 11 15.0000000  0  9G12G25G05G20G11G31G29G28G18
 -13458447.814 7  -9844686.99646  22314893.633    22314885.793
        45.100          36.500
 -23618388.596 8 -18357654.58447  20460668.602    20460661.875
        49.300          42.900
 -18399779.130 7 -13431109.12746  21692121.398    21692113.266
        47.000          38.300
 -21085349.293 8 -15236812.83546  21200384.680    21200375.316
        48.200          40.000
 -20739132.857 7 -15888551.67646  21740136.211    21740127.902
        47.100          37.400
   -958597.243 6  -4342986.00145  24145739.641    24145731.508
        40.500          34.600
 -15392264.975 8 -11743747.54647  21196917.930    21196909.270
        49.000          42.000
  -2890719.169 6  -2315484.52743  23667990.391    23667982.434
        37.500          22.500
  -2957707.48515   -947384.27852  24890287.703    24890283.734
        30.800          15.600
 23  8  4 15 11 30.0000000  0  9G12G25G05G20G11G31G29G28G18
 -13408416.902 7  -9805701.92546  22324415.219    22324406.559
        45.300          36.300
 -23599516.966 8 -18342949.43447  20464259.875    20464253.031
        49.000          42.800
 -18436894.510 7 -13460030.19046  21685058.320    21685050.656
        47.600          38.500
 -21087488.612 8 -15238479.83946  21199977.008    21199968.406
        48.700          39.900
 -20702611.597 7 -15860093.57746  21747085.172    21747077.098
        46.300          37.400
   -963171.409 6  -4346550.30945  24144868.531    24144860.691
        39.400          33.800
 -15420011.327 8 -11765368.09247  21191637.914    21191629.488
        49.100          42.000
  -2871124.981 6  -2300216.34543  23671718.164    23671710.734
        37.200          22.800
  -3009724.99515   -987917.37552  24880390.219    24880385.781
        33.900          15.600
 23  8  4 15 11 45.0000000  0  9G12G25G05G20G11G31G29G28G18
 -13358308.250 7  -9766656.25845  22333949.820    22333941.570
        45.800          35.800
 -23580500.690 8 -18328131.57147  20467878.484    20467871.758
        49.400          42.900
 -18473889.501 7 -13488857.43646  21678018.320    21678010.363
        47.100          38.500
 -21089479.921 8 -15240031.51346  21199598.563    21199589.141
        48.900          39.800
 -20666015.256 7 -15831576.97346  21754049.539    21754041.465
        47.000          37.100
   -967600.979 6  -4350001.95545  24144026.047    24144017.387
        39.900          32.800
 -15447687.336 7 -11786933.82147  21186371.039    21186363.082
        47.500          42.500
  -2851405.259 6  -2284850.33844  23675472.023    23675463.949
        38.200          26.200
  -3061716.726 5  -1028430.31142  24870497.664    24870491.758
        32.200          15.600
 23  8  4 15 12  0.0000000  0  9G12G25G05G20G11G31G29G28G18
 -13308122.320 7  -9727550.36045  22343499.953    22343491.996
        45.200          35.700
 -23561340.358 8 -18313201.46247  20471524.563    20471517.836
        49.300          42.300
 -18510764.468 7 -13517591.16946  21671001.492    21670993.301
        47.600          38.900
 -21091323.750 7 -15241468.26446  21199247.797    21199238.551
        47.900          39.800
 -20629344.547 7 -15803002.42746  21761027.352    21761020.039
        46.800          37.000
   -971886.283 6  -4353341.16745  24143210.938    24143202.395
        40.200          34.800
 -15475293.361 8 -11808445.01347  21181117.719    21181109.586
        48.000          42.200
  -2831560.611 6  -2269387.01044  23679248.008    23679240.461
        40.000          25.800
  -3113682.803 5                  24860607.594
        31.300
 23  8  4 15 12 15.0000000  0  9G12G25G05G20G11G31G29G28G18
 -13257859.178 7  -9688384.33945  22353064.992    22353056.977
        45.500          35.500
 -23542035.823 8 -18298158.98647  20475197.758    20475191.500
        49.300          42.600
 -18547518.439 8 -13546230.61846  21664007.844    21663999.184
        48.100          39.200
 -21093019.862 8 -15242789.90846  21198924.969    21198916.191
        49.100          39.700
 -20592599.447 7 -15774369.90946  21768019.688    21768012.609
        45.900          37.600
   -976027.106 6  -4356567.77046  24142422.375    24142415.707
        40.200          36.900
 -15502829.194 8 -11829901.49647  21175878.484    21175869.590
        48.900          42.000
  -2811591.041 6  -2253826.33544  23683048.945    23683040.813
        41.300          25.900
  -3165622.88814                  24850723.297
        29.900
 23  8  4 15 12 30.0000000  0  9G12G25G05G20G11G31G29G28G18
 -13207516.800 7  -9649156.56745  22362644.969    22362636.660
        45.700          35.100
 -23522584.843 8 -18283002.38947  20478899.617    20478892.715
        49.300          42.500
 -18584148.902 8 -13574773.82546  21657037.016    21657028.707
        48.500          39.000
 -21094565.617 8 -15243994.39846  21198630.758    21198621.980
        49.200          40.200
 -20555777.821 7 -15745677.75846  21775027.148    21775019.367
        46.900          37.500
   -980021.168 6  -4359680.03746  24141662.953    24141655.406
        41.200          37.600
 -15530292.192 8 -11851301.24847  21170652.320    21170643.719
        48.700          42.300
  -2791494.405 6  -2238166.65244  23686872.578    23686865.207
        39.600          25.800
  -3217534.54414                  24840841.422
        26.800
 23  8  4 15 12 45.0000000  0  8G12G25G05G20G11G31G29G28
 -13157099.531 7  -9609870.41945  22372238.672    22372230.773
        46.200          35.400
 -23502991.568 8 -18267734.92047  20482627.820    20482621.563
        49.200          42.600
 -18620659.473 7 -13603223.60046  21650088.766    21650081.277
        47.500          38.600
 -21095965.256 8 -15245085.02546  21198364.328    21198355.727
        48.700          39.800
 -20518883.950 7 -15716929.31346  21782047.656    21782040.461
        47.000          37.200
   -983872.395 7  -4362681.01846  24140930.914    24140921.609
        42.700          36.700
 -15557686.187 8 -11872647.22547  21165439.648    21165430.813
        49.100          42.500
  -2771274.961 6  -2222411.27743  23690719.516    23690712.730
        39.400          23.600
 23  8  4 15 13  0.0000000  0  8G12G25G05G20G11G31G29G28
 -13106605.793 7  -9570524.72745  22381846.820    22381839.625
        45.500          35.200
 -23483254.338 8 -18252355.27147  20486383.945    20486377.336
        49.700          42.800
 -18657048.124 8 -13631578.37646  21643164.641    21643156.039
        48.000          38.200
 -21097216.971 8 -15246060.39746  21198125.836    21198117.117
        49.300          39.900
 -20481916.289 7 -15688123.37946  21789082.141    21789074.535
        46.700          37.100
   -987578.977 6  -4365569.26545  24140223.625    24140216.020
        38.900          34.700
 -15585009.157 8 -11893937.85446  21160240.203    21160231.191
        50.000          41.900
  -2750931.173 6  -2206558.97644  23694592.195    23694583.535
        40.900          25.600
 23  8  4 15 13 15.0000000  0  8G12G25G05G20G11G31G29G28
 -13056035.407 7  -9531119.30145  22391470.141    22391462.770
        44.700          35.500
 -23463372.727 8 -18236863.13347  20490166.891    20490160.516
        49.900          42.300
 -18693314.127 8 -13659837.59246  21636263.258    21636255.242
        48.200          39.000
 -21098320.215 8 -15246920.06946  21197916.258    21197907.363
        48.500          40.100
 -20444874.542 7 -15659259.71146  21796131.453    21796123.730
        46.800          37.400
   -991140.529 6  -4368344.48345  24139546.750    24139538.969
        40.500          34.900
 -15612260.527 8 -11915172.70147  21155054.258    21155045.188
        49.800          42.300
  -2730462.804 6  -2190609.61544  23698486.320    23698479.125
        40.900          27.300
 23  8  4 15 13 30.0000000  0  9G12G25G05G20G11G31G29G28G18
 -13005388.004 7  -9491653.84646  22401109.297    22401100.871
        46.400          36.000
 -23443346.269 8 -18221258.12347  20493978.023    20493971.473
        49.600          42.300
 -18729456.418 7 -13688000.39746  21629385.609    21629377.828
        47.600          39.500
 -21099274.316 8 -15247663.52946  21197734.672    21197725.836
        48.000          40.100
 -20407758.360 7 -15630338.02946  21803193.859    21803185.844
        46.600          36.700
   -994556.250 6  -4371006.11845  24138895.680    24138889.188
        40.400          35.100
 -15639439.468 8 -11936351.11046  21149882.242    21149873.289
        49.000          41.900
  -2709869.370 6  -2174562.81644  23702404.555    23702397.652
        39.700          26.300
    138828.69515                  24801378.875
        34.000
 23  8  4 15 13 45.0000000  0  9G12G25G05G20G11G31G29G28G18
 -12954668.693 7  -9452132.37745  22410760.836    22410752.176
        45.500          35.400
 -23423179.975 8 -18205544.14547  20497815.578    20497808.910
        50.000          42.400
 -18765479.445 8 -13716070.27446  21622531.172    21622522.922
        48.300          39.000
 -21100084.186 8 -15248294.58846  21197580.805    21197571.383
        48.900          40.000
 -20370572.821 7 -15601362.31446  21810269.938    21810262.918
        45.200          37.300
   -997831.064 6  -4373557.93145  24138273.148    24138265.484
        41.300          35.700
 -15666550.827 8 -11957476.84447  21144723.133    21144714.590
        49.000          42.000
  -2689156.048 6  -2158422.60044  23706347.844    23706339.711
        41.400          25.100
     87046.858 5                  24791526.516
        34.500
 23  8  4 15 14  0.0000000  0  9G12G25G05G20G11G31G29G28G18
 -12903873.533 7  -9412551.78545  22420426.133    22420417.824
        44.500          34.800
 -23402869.672 8 -18189717.95547  20501680.539    20501673.930
        49.500          42.600
 -18801378.895 8 -13744043.84846  21615699.578    21615691.270
        48.200          38.800
 -21100745.465 8 -15248809.87646  21197454.367    21197445.473
        48.500          39.900
 -20333313.918 7 -15572329.43246  21817361.063    21817352.871
        46.600          37.400
  -1000960.701 7  -4375996.62845  24137679.227    24137669.863
        42.200          35.900
 -15693590.181 8 -11978546.46746  21139577.156    21139569.141
        49.100          41.900
  -2668318.913 6  -2142185.88643  23710312.906    23710304.832
        41.300          22.800
     35292.780 5                  24781677.125
        34.600
 23  8  4 15 14 15.0000000  0  9G12G25G05G20G11G31G29G28G18
 -12853002.374 7  -9372911.97445  22430107.727    22430098.656
        46.500          35.300
 -23382415.119 8 -18173779.34647  20505573.102    20505566.199
        49.500          43.100
 -18837153.726 8 -13771920.32846  21608891.672    21608883.422
        48.200          39.400
 -21101257.709 7 -15249209.02446  21197357.055    21197348.102
        47.800          39.400
 -20295981.535 7 -15543239.28146  21824464.570    21824456.789
        45.400          37.600
  -1003944.898 6  -4378321.97745  24137109.195    24137101.590
        40.300          35.100
 -15720556.969 8 -11999559.55947  21134445.625    21134437.375
        49.100          42.200
  -2647357.704 6  -2125852.49243  23714300.156    23714293.488
        39.400          23.200
    -16432.936 5  -1015947.89152  24771834.172    24771828.910
        35.900          16.300
 23  8  4 15 14 30.0000000  0  9G12G25G05G20G11G31G29G28G18
 -12802056.301 7  -9333213.80545  22439802.164    22439793.621
        46.400          35.700
 -23361817.341 8 -18157729.15047  20509492.617    20509485.891
        50.000          43.000
 -18872804.430 7 -13799700.07246  21602107.438    21602099.598
        47.900          39.000
 -21101621.958 8 -15249492.86046  21197287.805    21197278.969
        48.400          39.600
 -20258576.766 7 -15514092.73746  21831583.047    21831574.914
        47.200          38.000
  -1006784.415 6  -4380534.62545  24136569.188    24136561.641
        41.100          35.600
 -15747451.991 8 -12020516.72747  21129328.359    21129319.758
        50.300          42.400
  -2626273.644 6  -2109423.38243  23718313.281    23718305.559
        39.300          22.900
    -68131.069 6  -1056232.12842  24761997.188    24761991.223
        37.600          15.600
 23  8  4 15 14 45.0000000  0  9G12G25G05G20G11G31G29G28G18
 -12751036.073 7  -9293457.83745  22449510.406    22449502.273
        46.500          35.300
 -23341076.864 8 -18141567.76047  20513439.688    20513432.727
        50.100          43.100
 -18908331.166 8 -13827383.21646  21595347.016    21595338.824
        48.500          38.700
 -21101838.637 8 -15249661.70646  21197246.430    21197237.828
        49.200          39.500
 -20221100.251 7 -15484890.28546  21838714.797    21838706.898
        46.100          37.400
  -1009479.827 6  -4382634.97545  24136056.984    24136048.793
        41.100          35.500
 -15774275.429 8 -12041418.12347  21124224.141    21124215.480
        49.800          43.000
  -2605067.273 6  -2092898.98444  23722347.695    23722340.793
        39.200          24.300
   -119801.844 6  -1096495.04042  24752162.672    24752158.527
        36.600          16.300
 23  8  4 15 15  0.0000000  0  9G12G25G05G20G11G31G29G28G18
 -12699941.409 7  -9253643.88145  22459233.727    22459225.711
        45.800          35.100
 -23320193.224 8 -18125294.81147  20517413.414    20517406.805
        49.400          42.400
 -18943733.251 8 -13854969.25446  21588610.477    21588602.051
        49.100          38.900
 -21101907.177 8 -15249715.10646  21197233.289    21197224.219
        48.900          39.700
 -20183551.648 7 -15455631.66146  21845859.383    21845851.484
        46.000          37.300
  -1012030.437 6  -4384622.47245  24135571.492    24135563.945
        40.800          35.800
 -15801026.543 8 -12062263.14347  21119133.164    21119124.621
        50.100          42.600
  -2583738.320 6  -2076279.03944  23726408.047    23726400.207
        40.600          26.500
   -171444.488 5  -1136736.01742  24742337.758    24742331.559
        35.500          14.800
 23  8  4 15 15 15.0000000  0  9G12G25G05G20G11G31G29G28G18
 -12648773.341 7  -9213772.71445  22468970.867    22468963.027
        46.600          34.800
 -23299167.298 8 -18108910.99247  20521414.500    20521407.773
        49.700          42.800
 -18979010.944 8 -13882458.33146  21581897.281    21581889.266
        48.200          39.300
 -21101828.235 8 -15249653.59746  21197248.461    21197239.508
        48.300          39.800
 -20145931.942 7 -15426317.63446  21853017.977    21853010.840
        45.500          36.200
  -1014436.982 6  -4386497.70045  24135114.203    24135105.602
        40.600          35.500
 -15827705.848 8 -12083052.22347  21114056.516    21114047.445
        49.900          42.500
  -2562287.742 6  -2059564.35244  23730489.656    23730482.168
        40.800          25.200
   -223059.638 5  -1176955.60143  24732513.609    24732509.113
        35.200          18.300
 23  8  4 15 15 30.0000000  0  9G12G25G05G20G11G31G29G28G18
 -12597531.939 7  -9173844.43745  22478721.219    22478713.438
        45.000          34.500
 -23277999.011 8 -18092416.23347  20525442.484    20525435.699
        50.000          42.300
 -19014163.811 8 -13909850.15846  21575207.344    21575199.621
        48.400          39.000
 -21101601.616 8 -15249477.01646  21197291.711    21197282.582
        48.200          39.600
 -20108241.156 7 -15396948.21646  21860190.992    21860182.859
        45.700          37.200
  -1016699.206 6  -4388260.49446  24134683.195    24134675.180
        40.400          36.200
 -15854312.940 8 -12103785.02447  21108993.242    21108984.289
        50.300          42.500
  -2540715.638 6  -2042754.94944  23734594.078    23734587.176
        41.100          24.300
   -274646.821 5  -1217153.40643  24722697.813    24722692.551
        35.700          18.600
 23  8  4 15 15 45.0000000  0  9G12G25G05G20G11G31G29G28G18
 -12546216.697 7  -9133858.58745  22488486.953    22488478.586
        46.000          35.000
 -23256687.848 8 -18075810.16147  20529498.000    20529491.684
        49.100          42.300
 -19049190.630 8 -13937143.76446  21568542.734    21568534.543
        48.600          39.700
 -21101226.711 8 -15249184.87946  21197363.305    21197354.293
        49.000          39.800
 -20070478.881 7 -15367523.09746  21867376.781    21867369.176
        45.500          37.600
  -1018816.616 6  -4389910.37146  24134280.156    24134273.254
        41.300          37.300
 -15880847.153 8 -12124461.03847  21103943.977    21103935.258
        49.600          42.400
  -2519021.569 6  -2025850.51743  23738722.086    23738715.535
        39.800          23.800
   -326205.371 6  -1257328.88042  24712886.734    24712881.652
        36.800          17.400
 23  8  4 15 16  0.0000000  0 10G12G25G05G26G20G11G31G29G28G18
 -12494828.921 7  -9093816.23445  22498264.727    22498257.355
        45.800          35.000
 -23235234.851 8 -18059093.55447  20533580.570    20533573.844
        49.800          42.700
 -19084092.404 8 -13964339.92146  21561900.523    21561892.449
        48.200          39.900
    -19688.09315                  24910186.727
        30.700
 -21100704.339 8 -15248777.84046  21197462.445    21197453.668
        48.300          40.200
 -20032646.292 7 -15338043.19346  21874576.000    21874568.746
        45.700          36.900
  -1020790.067 7  -4391448.14046  24133906.211    24133897.961
        43.700          37.000
 -15907309.207 8 -12145080.82247  21098908.195    21098899.535
        49.600          42.900
  -2497206.705 6  -2008851.94943  23742873.063    23742866.746
        39.400          22.600
   -377735.938 5  -1297482.54742  24703079.875    24703075.496
        35.400          17.400
 23  8  4 15 16 15.0000000  0 10G12G25G05G26G20G11G31G29G28G18
 -12443368.319 7  -9053717.11445  22508057.813    22508050.090
        45.900          34.800
 -23213639.570 8 -18042266.07147  20537689.953    20537683.344
        49.800          42.800
 -19118867.863 8 -13991437.65246  21555283.313    21555275.238
        48.700          39.800
    -70587.002 5                  24900499.164
        33.100
 -21100033.995 8 -15248255.49646  21197590.242    21197581.113
        49.100          40.300
 -19994743.000 7 -15308508.18346  21881788.844    21881781.355
        46.000          37.400
  -1022618.934 7  -4392873.26445  24133557.250    24133547.945
        42.300          34.700
 -15933698.270 8 -12165643.73847  21093886.594    21093877.992
        49.700          42.400
  -2475270.716 6  -1991759.02443  23747047.930    23747040.617
        38.900          22.600
   -429237.815 5  -1337613.80742  24693279.578    24693274.613
        35.400          16.300
 23  8  4 15 16 30.0000000  0 10G12G25G05G26G20G11G31G29G28G18
 -12391846.614 7  -9013570.39245  22517861.352    22517854.742
        44.700          34.200
 -23191913.629 8 -18025336.78247  20541824.102    20541817.727
        49.700          42.900
 -19153528.350 8 -14018445.79246  21548687.719    21548679.234
        48.600          40.100
   -121450.219 5                  24890820.469
        33.400
 -21099227.203 8 -15247626.83846  21197743.305    21197734.352
        48.800          39.500
 -19956780.728 7 -15278927.21846  21889012.617    21889004.895
        45.000          36.400
  -1024314.800 6  -4394194.76145  24133232.703    24133225.449
        40.900          34.400
 -15960025.848 8 -12186158.73947  21088877.172    21088868.043
        50.000          42.500
  -2453225.302 6  -1974580.81443  23751243.234    23751236.156
        39.900          22.600
   -480722.329 5  -1377731.58142  24683484.500    24683477.070
        35.200          16.900
 23  8  4 15 16 45.0000000  0 10G12G25G05G26G20G11G31G29G28G18
 -12340241.506 7  -8973358.67645  22527682.656    22527674.699
        45.800          35.300
 -23170034.671 8 -18008288.26147  20545987.281    20545981.199
        50.000          42.300
 -19188050.785 8 -14045346.36346  21542118.016    21542110.000
        48.800          40.100
   -172254.962 5                  24881153.555
        33.400
 -21098261.464 8 -15246874.31146  21197927.172    21197917.926
        48.200          40.500
 -19918737.221 7 -15249282.95546  21896251.898    21896244.527
        45.800          36.900
  -1025855.154 6  -4395395.05745  24132941.180    24132931.934
        40.500          34.800
 -15986269.273 8 -12206608.16447  21083882.594    21083874.227
        50.200          42.600
  -2431048.262 6  -1957300.03143  23755463.414    23755456.160
        39.700          23.900
   -532166.767 5  -1417818.07242  24673693.641    24673687.324
        34.000          16.900
 23  8  4 15 17  0.0000000  0 10G12G25G05G26G20G11G31G29G28G18
 -12288564.044 7  -8933090.58945  22537516.953    22537508.938
        45.600          35.000
 -23148013.574 8 -17991128.99447  20550178.227    20550171.500
        49.500          42.100
 -19222446.033 8 -14072147.83646  21535572.703    21535564.688
        48.300          40.300
   -223011.679 5                  24871491.969
        33.200
 -21097147.433 8 -15246006.23646  21198139.383    21198130.078
        49.100          39.900
 -19880623.499 7 -15219583.99246  21903504.453    21903497.434
        45.300          36.800
  -1027250.708 6  -4396482.52546  24132676.313    24132667.711
        41.400          36.900
 -16012439.110 8 -12227000.26047  21078902.898    21078894.063
        49.500          42.200
  -2408750.587 6  -1939925.22844  23759706.680    23759698.430
        39.900          24.600
   -583581.651 5  -1457881.59742  24663908.125    24663903.512
        32.600          15.600
 23  8  4 15 17 15.0000000  0 10G12G25G05G26G20G11G31G29G28G18
 -12236814.816 7  -8892766.57345  22547363.828    22547355.988
        45.200          34.200
 -23125850.680 8 -17973859.21746  20554395.523    20554389.266
        49.700          41.800
 -19256713.773 8 -14098849.93346  21529051.914    21529043.547
        48.500          40.000
   -273720.267 5    335929.86153  24861842.844    24861836.352
        33.000          20.100
 -21095885.316 8 -15245022.77346  21198379.633    21198370.270
        48.600          39.800
 -19842439.914 7 -15189830.57046  21910771.000    21910762.750
        45.100          36.600
  -1028501.758 6  -4397457.36246  24132436.813    24132430.379
        39.800          37.400
 -16038535.387 8 -12247335.02647  21073936.820    21073928.570
        49.800          42.200
  -2386332.723 6  -1922456.82644  23763973.000    23763965.160
        39.200          24.000
   -634967.161 5  -1497922.21542  24654128.875    24654125.258
        31.800          17.400
 23  8  4 15 17 30.0000000  0 10G12G25G05G26G20G11G31G29G28G18
 -12184994.808 7  -8852387.41045  22557225.086    22557217.012
        44.300          34.400
 -23103546.861 8 -17956479.64047  20558640.484    20558633.465
        49.300          42.300
 -19290854.120 8 -14125452.77746  21522555.164    21522547.148
        48.600          40.100
   -324381.013 5    296453.91842  24852203.414    24852196.160
        33.000          17.400
 -21094475.876 8 -15243924.50746  21198647.781    21198638.652
        49.800          39.700
 -19804187.479 7 -15160023.49346  21918050.414    21918042.281
        44.600          36.500
  -1029608.973 6  -4398320.16146  24132227.313    24132218.887
        41.700          37.800
 -16064558.635 8 -12267612.89147  21068984.602    21068976.117
        49.500          42.500
  -2363795.646 6  -1904895.52244  23768261.781    23768254.117
        40.200          24.700
   -686323.773 5  -1537940.24742  24644356.773    24644352.395
        34.800          17.800
 23  8  4 15 17 45.0000000  0 10G12G25G05G26G20G11G31G29G28G18
 -12133104.298 7  -8811953.26745  22567100.078    22567091.359
        45.200          34.900
 -23081102.325 8 -17938990.40347  20562911.258    20562904.355
        49.200          42.200
 -19324867.168 8 -14151956.42146  21516082.281    21516074.324
        48.300          39.900
   -374993.834 5    257015.31143  24842571.789    24842565.590
        34.300          19.300
 -21092919.231 8 -15242711.54146  21198943.695    21198934.625
        49.100          39.600
 -19765866.530 7 -15130163.04145  21925342.805    21925334.496
        45.900          35.900
  -1030572.433 6  -4399070.89046  24132042.352    24132035.684
        39.500          37.300
 -16090508.821 8 -12287833.81447  21064046.500    21064038.133
        49.500          42.700
  -2341139.732 6  -1887241.57443  23772573.242    23772565.168
        40.500          23.200
   -737651.371 5  -1577935.70243  24634590.148    24634584.477
        35.700          20.100
 23  8  4 15 18  0.0000000  0 10G12G25G05G26G20G11G31G29G28G18
 -12081143.359 7  -8771464.27745  22576987.102    22576979.906
        44.500          33.800
 -23058517.135 8 -17921391.57447  20567209.023    20567202.180
        50.500          42.900
 -19358752.706 8 -14178360.70846  21509634.445    21509626.078
        49.100          39.600
   -425558.212 5    217614.55842  24832950.039    24832943.781
        34.400          17.400
 -21091215.400 8 -15241383.88646  21199268.234    21199259.281
        48.700          40.000
 -19727477.173 7 -15100249.29046  21932647.953    21932639.938
        46.200          36.800
  -1031392.272 6  -4399709.74246  24131887.797    24131879.547
        41.400          36.800
 -16116385.611 8 -12307997.56447  21059122.563    21059113.727
        49.500          42.900
  -2318365.103 6  -1869495.14343  23776906.547    23776899.469
        39.400          22.800
   -788949.779 5  -1617908.46643  24624827.758    24624822.852
        35.400          19.300
 23  8  4 15 18 15.0000000  0 10G12G25G05G26G20G11G31G29G28G18
 -12029111.737 7  -8730920.20345  22586888.430    22586880.766
        44.400          33.900
 -23035790.714 8 -17903682.68847  20571533.688    20571526.785
        49.000          42.600
 -19392509.349 8 -14204664.55946  21503210.672    21503202.773
        48.800          40.100
   -476073.089 5    178252.29143  24823338.008    24823331.516
        33.300          18.600
 -21089363.541 8 -15239940.87646  21199620.633    21199611.387
        49.600          39.900
 -19689018.944 7 -15070281.86446  21939965.914    21939958.426
        46.700          36.600
  -1032067.604 6  -4400235.94645  24131757.875    24131750.563
        41.100          35.800
 -16142188.186 8 -12328103.47147  21054212.797    21054204.078
        49.800          42.900
  -2295471.307 6  -1851655.88943  23781263.461    23781255.914
        39.900          22.300
   -840218.133 5  -1657857.79442  24615070.641    24615066.730
        33.300          17.800
 23  8  4 15 18 30.0000000  0 10G12G25G05G26G20G11G31G29G28G18
 -11977009.949 7  -8690321.45345  22596803.617    22596795.484
        44.800          35.500
 -23012923.299 8 -17885863.93847  20575885.016    20575878.641
        49.900          42.300
 -19426136.771 8 -14230867.71846  21496811.266    21496803.074
        48.600          39.300
   -526538.347 5    138928.73643  24813733.633    24813728.902
        30.300          19.000
 -21087363.853 8 -15238382.67546  21200001.164    21199992.152
        49.400          40.000
 -19650492.178 7 -15040261.04046  21947297.930    21947289.914
        45.900          36.900
  -1032598.575 7  -4400649.70946  24131658.680    24131650.254
        42.400          36.300
 -16167916.669 8 -12348151.63547  21049316.164    21049308.207
        49.600          42.700
  -2272458.720 6  -1833724.02644  23785642.625    23785634.492
        41.100          24.400
   -891456.308 5  -1697783.60342  24605321.969    24605316.180
        33.000          17.400
 23  8  4 15 18 45.0000000  0 10G12G25G05G26G20G11G31G29G28G18
 -11924838.642 7  -8649668.54145  22606731.414    22606723.105
        44.500          33.500
 -22989915.623 8 -17867935.89347  20580263.188    20580256.871
        49.400          42.000
 -19459634.984 8 -14256970.20246  21490436.578    21490428.680
        48.000          39.600
   -576954.110 4     99643.78142  24804139.453    24804135.367
        28.900          17.400
 -21085216.775 8 -15236709.62746  21200409.680    21200400.609
        49.200          40.600
 -19611897.647 7 -15010187.41246  21954641.102    21954634.492
        46.200          36.200
  -1032985.793 6  -4400951.49345  24131583.398    24131575.617
        41.400          35.700
 -16193571.411 8 -12368142.35947  21044434.250    21044425.473
        49.600          42.700
  -2249328.211 6  -1815700.28144  23790043.828    23790036.105
        41.500          24.600
   -942664.645 5  -1737686.08942  24595578.258    24595571.648
        33.500          16.900
 23  8  4 15 19  0.0000000  0 10G12G25G05G26G20G11G31G29G28G18
 -11872590.172 7  -8608955.48645  22616673.664    22616665.824
        44.300          32.700
 -22966759.901 8 -17849892.49147  20584669.516    20584663.082
        49.200          42.000
 -19492996.600 8 -14282966.24146  21484088.547    21484080.121
        49.200          40.300
   -627312.12414     60403.74952  24794557.008    24794552.980
        27.600          17.400
 -21082914.529 8 -15234915.67746  21200847.789    21200838.895
        49.600          40.000
 -19573227.699 7 -14980055.01445  21962000.445    21961992.605
        45.500          35.900
  -1033221.441 7  -4401135.12746  24131540.148    24131530.609
        42.100          36.600
 -16219144.118 8 -12388069.14947  21039568.023    21039559.598
        49.800          42.900
  -2226072.071 6  -1797578.60944  23794470.547    23794461.945
        41.400          24.200
   -993835.263 5  -1777559.18242  24585841.672    24585834.359
        31.600          16.300
 23  8  4 15 19 15.0000000  0 10G12G25G05G26G20G11G31G29G28G18
 -11820290.459 7  -8568202.51345  22626626.414    22626617.988
        44.700          33.500
 -22943481.960 8 -17831753.85346  20589099.117    20589092.977
        50.000          41.900
 -19526246.726 8 -14308875.39946  21477761.430    21477753.121
        48.900          40.000
   -677637.79014     21188.97352  24784980.117    24784976.148
        28.000          15.600
 -21080482.728 8 -15233020.77546  21201310.531    21201301.871
        49.100          40.500
 -19534508.176 7 -14949883.98145  21969368.664    21969360.355
        46.300          35.600
  -1033331.143 6  -4401220.62046  24131518.258    24131510.242
        40.500          36.900
 -16244660.364 8 -12407951.94147  21034712.234    21034703.926
        50.200          42.800
  -2202716.211 6  -1779379.24143  23798914.516    23798906.500
        40.400          23.000
  -1044993.39715  -1817422.67052  24576104.516    24576100.254
        31.600          16.900
 23  8  4 15 19 30.0000000  0 10G12G25G05G26G20G11G31G29G28G18
 -11767903.029 7  -8527381.17445  22636594.828    22636587.574
        44.600          34.200
 -22920045.055 8 -17813491.34447  20593558.867    20593552.727
        49.100          42.400
 -19559348.105 7 -14334668.65046  21471461.672    21471453.891
        47.900          39.800
   -727893.88614    -17971.63152  24775421.617    24775412.137
        28.600          16.900
 -21077884.605 8 -15230996.27146  21201804.813    21201795.918
        48.200          40.500
 -19495702.526 7 -14919645.82746  21976753.594    21976745.402
        45.900          36.400
  -1033278.093 6  -4401179.27146  24131529.195    24131521.180
        40.900          37.300
 -16270083.096 8 -12427761.87747  21029874.383    21029866.309
        49.400          42.400
  -2179224.017 6  -1761073.66143  23803384.430    23803376.063
        39.300          23.300
  -1096102.17614  -1857247.66352  24566377.492    24566375.750
        29.100          14.800
 23  8  4 15 19 45.0000000  0  9G12G25G05G26G20G11G31G29G28
 -11715466.804 7  -8486521.83345  22646573.563    22646565.781
        45.400          34.200
 -22896488.067 8 -17795135.27247  20598042.398    20598035.672
        50.200          42.700
 -19592338.763 8 -14360375.63246  21465184.492    21465176.008
        48.500          40.200
   -778118.845 4    -57107.94642  24765866.367    24765853.781
        28.600          17.400
 -21075158.953 8 -15228872.39346  21202323.898    21202314.359
        48.700          40.800
 -19456849.604 7 -14889370.87646  21984147.133    21984139.645
        46.700          36.200
  -1033100.916 6  -4401041.19745  24131561.555    24131554.887
        40.500          35.900
 -16295450.955 8 -12447529.04047  21025047.516    21025038.738
        49.400          42.900
  -2155634.509 6  -1742692.25743  23807872.805    23807866.254
        38.700          22.900
 23  8  4 15 20  0.0000000  0 10G12G25G05G26G20G11G31G29G28G18
 -11662952.464 7  -8445601.62945  22656567.070    22656559.406
        44.200          34.400
 -22872781.570 8 -17776662.70147  20602552.938    20602546.504
        50.200          42.600
 -19625189.224 8 -14385973.37646  21458933.250    21458925.234
        48.400          40.200
   -828282.774 4    -96196.75043  24756320.727    24756307.965
        28.900          18.600
 -21072276.214 8 -15226626.10146  21202872.133    21202863.238
        48.500          40.200
 -19417920.119 7 -14859036.21846  21991554.867    21991547.086
        46.500          36.000
  -1032770.226 7  -4400783.52945  24131626.523    24131617.219
        42.000          35.300
 -16320734.273 8 -12467230.33247  21020236.195    21020227.652
        49.800          42.900
  -2131918.347 6  -1724212.20143  23812385.383    23812379.945
        38.900          22.000
    454727.42215  -1846350.03153  24546940.359    24546932.813
        34.200          20.400
 23  8  4 15 20 15.0000000  0  9G12G25G05G20G11G31G29G28G18
 -11610359.559 7  -8404620.18745  22666575.094    22666567.664
        44.700          34.000
 -22848925.014 8 -17758073.20247  20607093.055    20607086.504
        49.600          42.400
 -19657898.440 8 -14411461.05046  21452709.086    21452700.484
        49.100          40.100
 -21069235.580 8 -15224256.79146  21203450.828    21203441.816
        48.000          39.900
 -19378913.579 7 -14828641.54246  21998977.602    21998969.645
        46.800          36.200
  -1032285.174 7  -4400405.61645  24131718.352    24131709.105
        42.200          35.100
 -16345932.104 8 -12486865.01247  21015441.188    21015432.527
        48.200          43.300
  -2108075.146 6  -1705633.08444  23816924.375    23816916.535
        40.500          24.500
    403711.524 5  -1886102.65642  24537232.328    24537225.309
        35.200          17.800
 23  8  4 15 20 30.0000000  0  9G12G25G05G20G11G31G29G28G18
 -11557708.630 7  -8363593.53645  22676594.023    22676586.242
        44.900          34.000
 -22824938.790 8 -17739382.65247  20611657.430    20611650.996
        49.600          42.700
 -19690486.323 8 -14436854.18046  21446507.133    21446499.352
        48.300          40.400
 -21066057.391 8 -15221780.27946  21204055.148    21204046.781
        48.800          39.600
 -19339850.446 7 -14798202.76646  22006410.594    22006403.516
        45.800          36.800
  -1031666.211 6  -4399923.29446  24131834.563    24131827.426
        40.400          36.300
 -16371064.520 8 -12506448.72147  21010658.719    21010649.883
        49.700          43.100
  -2084125.399 6  -1686970.98044  23821481.602    23821473.586
        40.500          25.000
    352716.927 5  -1925838.68442  24527527.047    24527521.551
        34.600          16.300
 23  8  4 15 20 45.0000000  0  9G12G25G05G20G11G31G29G28G18
 -11504990.100 7  -8322514.20645  22686626.563    22686618.840
        44.300          34.000
 -22800813.134 8 -17720583.46047  20616248.344    20616241.910
        49.300          42.600
 -19722942.524 8 -14462144.70846  21440330.602    21440322.938
        48.500          40.100
 -21062731.681 8 -15219188.82646  21204688.719    21204679.766
        49.200          39.800
 -19300721.036 7 -14767712.35746  22013857.422    22013849.230
        45.400          37.100
  -1030903.280 6  -4399328.84546  24131981.133    24131972.531
        41.400          37.100
 -16396121.457 8 -12525973.60647  21005890.336    21005882.027
        49.700          43.000
  -2060059.383 6  -1668218.27143  23826059.656    23826053.574
        39.300          23.800
    301753.810 5  -1965550.14742  24517829.430    24517823.172
        35.100          17.800
 23  8  4 15 21  0.0000000  0  9G12G25G05G20G11G31G29G28G18
 -11452205.047 7  -8281383.03545  22696670.961    22696663.473
        44.200          34.400
 -22776549.061 8 -17701676.40346  20620865.680    20620859.246
        49.000          41.900
 -19755267.698 8 -14487333.13146  21434179.992    21434171.859
        48.300          40.100
 -21059259.357 8 -15216483.12346  21205349.047    21205340.445
        48.100          40.000
 -19261526.478 7 -14737171.16346  22021315.555    22021308.125
        45.800          36.300
  -1029997.569 6  -4398623.05146  24132153.328    24132145.488
        41.300          37.000
 -16421103.601 8 -12545440.21747  21001136.516    21001128.207
        48.800          43.600
  -2035878.312 6  -1649375.92943  23830661.328    23830654.719
        39.200          22.000
    250821.431 5  -2005237.65642  24508137.039    24508130.781
        35.000          17.400
 23  8  4 15 21 15.0000000  0  9G12G25G05G20G11G31G29G28G18
 -11399352.665 7  -8240199.40745  22706727.945    22706721.043
        44.800          34.200
 -22752145.713 8 -17682660.83147  20625509.719    20625503.344
        50.400          42.000
 -19787460.200 8 -14512418.16646  21428053.648    21428045.457
        48.700          39.900
 -21055639.498 8 -15213662.45846  21206038.102    21206029.324
        48.100          39.700
 -19222265.931 7 -14706578.55446  22028786.359    22028779.164
        46.400          36.000
  -1028947.751 6  -4397805.03846  24132352.148    24132344.719
        40.500          36.500
 -16446009.846 8 -12564847.69547  20996397.078    20996388.535
        49.200          43.000
  -2011581.358 6  -1630443.25043  23835285.734    23835278.012
        39.500          22.300
    199921.071 5  -2044900.17642  24498450.141    24498445.645
        33.900          17.800
 23  8  4 15 21 30.0000000  0  9G12G25G05G20G11G31G29G28G18
 -11346433.803 7  -8198964.01645  22716797.664    22716791.172
        43.300          32.800
 -22727603.787 8 -17663537.28046  20630179.227    20630173.379
        49.200          41.900
 -19819520.443 8 -14537400.14646  21421952.875    21421944.625
        48.300          40.100
 -21051872.568 8 -15210727.19946  21206754.406    21206745.863
        48.100          39.900
 -19182940.172 7 -14675935.14446  22036270.367    22036262.352
        46.300          36.300
  -1027754.703 6  -4396875.34045  24132578.992    24132571.152
        39.300          35.300
 -16470840.567 8 -12584196.31247  20991671.945    20991663.520
        49.100          43.000
  -1987169.373 6  -1611420.93843  23839931.258    23839923.418
        39.600          22.200
    149052.205 5  -2084538.30442  24488770.500    24488765.121
        34.900          17.800
 23  8  4 15 21 45.0000000  0  9G12G25G05G20G11G31G29G28G18
 -11293449.970 7  -8157677.98345  22726881.406    22726873.684
        45.500          33.900
 -22702924.578 8 -17644306.74747  20634876.391    20634869.840
        50.100          42.200
 -19851449.658 8 -14562280.04146  21415876.969    21415868.660
        49.600          40.300
 -21047959.894 8 -15207678.38246  21207499.359    21207490.758
        48.700          40.300
 -19143550.600 7 -14645242.00546  22043766.094    22043757.961
        46.300          36.500
  -1026419.388 6  -4395834.89445  24132834.711    24132825.230
        40.600          35.300
 -16495596.803 8 -12603486.89747  20986960.977    20986952.492
        49.500          42.800
  -1962643.781 6  -1592310.13543  23844597.828    23844590.398
        38.700          20.600
     98213.965 5  -2124152.41142  24479097.039    24479091.250
        33.700          16.900
 23  8  4 15 22  0.0000000  0  9G12G25G05G20G11G31G29G28G18
 -11240399.230 7  -8116339.79045  22736976.375    22736968.535
        45.000          34.200
 -22678106.071 8 -17624967.66546  20639598.664    20639592.523
        49.200          41.700
 -19883245.067 8 -14587055.66846  21409826.547    21409818.414
        48.300          40.400
 -21043899.235 8 -15204514.23546  21208272.188    21208263.352
        48.100          40.400
 -19104095.246 7 -14614497.59345  22051272.813    22051265.910
        43.800          35.800
  -1024939.775 6  -4394681.97345  24133115.297    24133107.223
        41.300          35.800
 -16520276.081 8 -12622717.50947  20982264.836    20982256.352
        48.700          43.300
  -1938002.695 6  -1573109.29843  23849286.352    23849279.859
        39.300          21.300
     47408.573 5  -2163740.98042  24469427.539    24469423.336
        33.100          16.300
 23  8  4 15 22 15.0000000  0  9G12G25G05G20G11G31G29G28G18
 -11187283.307 7  -8074950.79045  22747083.992    22747075.977
        44.800          33.100
 -22653149.881 8 -17605521.30747  20644347.813    20644341.320
        49.000          42.000
 -19914908.133 8 -14611728.15746  21403801.633    21403792.914
        49.000          39.800
 -21039692.155 8 -15201235.99646  21209072.633    21209063.855
        48.800          40.000
 -19064575.751 7 -14583703.23046  22058794.430    22058786.180
        45.800          36.000
  -1023317.393 7  -4393417.80346  24133424.984    24133415.855
        42.500          37.300
 -16544879.679 8 -12641889.15547  20977582.789    20977574.305
        49.300          43.300
  -1913247.778 6  -1553819.76743  23853998.227    23853990.738
        40.200          21.700
     -3365.108 5  -2203304.84742  24459765.820    24459761.441
        33.300          15.600
 23  8  4 15 22 30.0000000  0  9G12G25G05G20G11G31G29G28G18
 -11134101.697 7  -8033510.65045  22757204.711    22757196.285
        44.500          33.300
 -22628055.329 8 -17585967.12547  20649122.609    20649116.762
        49.000          42.400
 -19946437.457 8 -14636296.44646  21397801.164    21397793.031
        48.800          40.400
 -21035337.817 8 -15197843.00746  21209901.516    21209892.563
        48.200          40.400
 -19024991.600 7 -14552858.45346  22066327.648    22066319.281
        46.300          36.400
  -1021551.483 6  -4392041.76346  24133758.602    24133752.754
        40.400          36.700
 -16569406.578 8 -12661001.02747  20972915.766    20972906.988
        49.400          43.100
  -1888378.554 6  -1534441.18543  23858729.930    23858723.027
        38.400          21.100
    -54106.152 5  -2242843.28842  24450110.734    24450105.828
        34.000          17.400
 23  8  4 15 22 45.0000000  0  9G12G25G05G20G11G31G29G28G18
 -11080855.804 7  -7992020.37845  22767336.219    22767329.082
        44.600          32.700
 -22602823.790 8 -17566306.20547  20653924.453    20653917.961
        49.800          42.700
 -19977833.705 7 -14660761.04046  21391826.188    21391818.230
        47.900          40.600
 -21030837.474 8 -15194336.26146  21210757.469    21210748.926
        48.400          40.200
 -18985344.120 7 -14521964.34846  22073871.734    22073864.539
        45.700          36.100
  -1019643.131 6  -4390554.77745  24134124.258    24134115.012
        41.800          35.900
 -16593858.038 8 -12680054.11847  20968262.586    20968254.102
        49.200          43.200
  -1863396.357 6  -1514974.50043  23863484.336    23863477.434
        40.200          21.100
   -104815.589 5  -2282357.11743  24440462.469    24440455.859
        34.800          18.300
 23  8  4 15 23  0.0000000  0 10G12G25G05G26G20G11G31G29G28G18
 -11027545.153 7  -7950479.67345  22777480.859    22777473.781
        44.200          32.500
 -22577454.705 7 -17546538.11047  20658752.320    20658745.828
        47.800          42.000
 -20009095.993 8 -14685121.25746  21385877.352    21385869.395
        48.600          40.400
    589519.85515    -66991.29254  24642544.305    24642542.914
        32.600          26.200
 -21026190.381 8 -15190715.15746  21211642.055    21211633.395
        48.600          40.500
 -18945632.870 7 -14491020.56945  22081428.320    22081420.422
        44.200          35.900
  -1017591.819 6  -4388956.37945  24134511.914    24134505.246
        39.800          34.900
 -16618233.054 8 -12699047.63647  20963624.281    20963615.504
        49.300          43.500
  -1838300.842 6  -1495419.55743  23868259.578    23868252.207
        38.700          21.300
   -155492.555 5  -2321845.61542  24430816.953    24430812.164
        35.400          16.300
 23  8  4 15 23 15.0000000  0 10G12G25G05G26G20G11G31G29G28G18
 -10974169.911 7  -7908888.61945  22787637.734    22787630.773
        43.800          32.500
 -22551947.946 8 -17526662.73446  20663606.172    20663599.738
        49.400          41.700
 -20040223.817 8 -14709376.68446  21379955.172    21379946.102
        49.300          40.100
    540050.92615   -105538.50153  24633131.063    24633129.730
        30.300          23.900
 -21021396.247 8 -15186979.48146  21212554.672    21212545.250
        48.200          40.200
 -18905857.755 7 -14460026.98846  22088997.938    22088990.098
        46.400          36.400
  -1015397.312 6  -4387246.33645  24134931.938    24134924.098
        40.800          35.100
 -16642531.149 8 -12717981.22047  20959000.320    20958991.836
        49.000          43.100
  -1813091.996 6  -1475776.35243  23873057.711    23873050.047
        38.300          22.300
   -206136.596 5  -2361308.44842  24421179.992    24421173.734
        35.200          15.600
 23  8  4 15 23 30.0000000  0 10G12G25G05G26G20G11G31G29G28G18
 -10920730.640 7  -7867247.70045  22797806.898    22797799.586
        44.000          32.600
 -22526304.019 8 -17506680.48346  20668485.930    20668479.496
        49.900          41.400
 -20071217.142 8 -14733527.30746  21374056.148    21374048.133
        48.200          39.700
    490637.537 5   -144042.40244  24623729.656    24623726.977
        32.900          24.200
 -21016455.594 8 -15183129.62746  21213494.281    21213485.387
        49.300          39.300
 -18866019.409 7 -14428984.14246  22096577.555    22096570.652
        45.000          36.100
  -1013059.880 6  -4385424.96945  24135374.258    24135367.707
        40.400          34.800
 -16666752.424 8 -12736854.94247  20954391.281    20954382.738
        50.000          43.600
  -1787770.423 6  -1456045.29243  23877874.789    23877869.059
        38.300          22.800
   -256747.855 5  -2400745.74342  24411549.484    24411542.758
        35.800          15.600
 23  8  4 15 23 45.0000000  0 10G12G25G05G26G20G11G31G29G28G18
 -10867227.364 7  -7825556.86745  22807988.422    22807980.641
        44.100          32.100
 -22500522.917 8 -17486591.34746  20673391.961    20673385.820
        49.500          41.900
 -20102075.456 7 -14757572.74846  21368183.523    21368175.801
        47.800          40.400
    441280.177 5   -182502.64043  24614336.031    24614334.582
        32.200          22.500
 -21011368.145 8 -15179165.39146  21214463.063    21214453.816
        49.100          39.500
 -18826117.796 7 -14397892.04046  22104171.328    22104164.016
        44.600          36.400
  -1010579.376 6  -4383492.13145  24135849.695    24135839.746
        41.300          34.200
 -16690896.559 8 -12755668.56347  20949796.781    20949788.238
        49.100          43.600
  -1762336.204 6  -1436226.46443  23882715.742    23882708.781
        38.400          22.500
   -307326.034 5  -2440157.28542  24401923.203    24401918.121
        34.300          16.900
 23  8  4 15 24  0.0000000  0 10G12G25G05G26G20G11G31G29G28G18
 -10813661.213 7  -7783817.04645  22818181.664    22818174.352
        44.000          32.600
 -22474605.817 8 -17466396.21947  20678323.469    20678317.387
        49.300          42.000
 -20132799.557 8 -14781513.59846  21362338.320    21362329.484
        49.400          40.300
    391978.395 5   -220919.60943  24604955.164    24604953.480
        33.200          22.300
 -21006135.005 8 -15175087.62846  21215458.344    21215449.684
        48.800          39.800
 -18786154.155 7 -14366751.55146  22111776.836    22111768.410
        46.300          36.800
  -1007956.907 6  -4381448.75345  24136346.063    24136338.398
        39.300          33.900
 -16714964.430 8 -12774422.75047  20945217.070    20945208.176
        50.400          43.900
  -1736790.645 6  -1416320.90543  23887576.195    23887569.293
        38.700          22.600
   -357871.905 5  -2479543.60442  24392305.813    24392299.672
        34.800          17.400
 23  8  4 15 24 15.0000000  0 10G12G25G05G26G20G11G31G29G28G18
 -10760031.817 7  -7742027.97145  22828387.000    22828380.391
        44.000          32.300
 -22448552.103 8 -17446094.66147  20683281.969    20683275.242
        49.500          42.000
 -20163388.603 8 -14805349.18446  21356516.953    21356508.820
        48.700          40.600
    342733.166 5   -259292.54243  24595585.453    24595581.719
        34.300          20.900
 -21000755.554 8 -15170895.86146  21216482.180    21216473.344
        48.900          40.100
 -18746128.028 7 -14335562.39045  22119392.867    22119385.613
        45.700          35.700
  -1005192.040 6  -4379294.27145  24136874.406    24136864.691
        41.000          33.700
 -16738955.263 8 -12793116.90747  20940650.961    20940642.652
        49.000          43.500
  -1711133.267 6  -1396328.17543  23892458.719    23892452.578
        37.700          23.200
   -408384.531 5  -2518904.08742  24382693.711    24382687.863
        34.400          17.400
 23  8  4 15 24 30.0000000  0 10G12G25G05G26G20G11G31G29G28G18
 -10706339.173 7  -7700189.61045  22838604.383    22838596.953
        44.100          31.500
 -22422361.666 8 -17425686.54746  20688265.820    20688259.152
        49.600          41.700
 -20193841.820 8 -14829078.95246  21350720.617    21350713.188
        48.000          40.200
    293545.022 5   -297620.99443  24586226.242    24586221.219
        35.600          20.100
 -20995229.476 8 -15166589.83146  21217533.578    21217524.977
        48.500          39.900
 -18706039.253 7 -14304324.42745  22127020.656    22127014.164
        45.100          35.600
  -1002284.180 6  -4377028.45545  24137426.609    24137419.121
        40.200          35.700
 -16762868.511 8 -12811750.61347  20936100.547    20936092.297
        49.800          43.300
  -1685364.020 6  -1376248.27144  23897363.688    23897355.613
        39.400          24.200
   -458863.620 5  -2558238.41742  24373087.328    24373081.949
        34.300          16.300
 23  8  4 15 24 45.0000000  0 10G12G25G05G26G20G11G31G29G28G18
 -10652584.170 7  -7658302.66245  22848834.508    22848826.434
        44.700          32.500
 -22396035.096 8 -17405172.35447  20693275.422    20693269.047
        49.600          42.100
 -20224159.306 8 -14852702.96046  21344952.852    21344943.781
        49.400          41.000
    244414.025 5   -335904.92143  24576877.266    24576871.359
        34.900          19.900
 -20989557.129 8 -15162169.83946  21218613.000    21218604.047
        48.500          39.900
 -18665888.550 7 -14273038.20546  22134662.172    22134654.977
        45.700          36.500
   -999233.941 6  -4374651.62645  24138006.430    24137999.820
        39.400          35.500
 -16786704.397 8 -12830324.04747  20931565.516    20931556.621
        49.600          43.200
  -1659483.625 6  -1356081.77744  23902288.273    23902280.492
        38.400          24.300
   -509309.201 5  -2597546.68342  24363487.359    24363483.625
        32.200          14.800
 23  8  4 15 25  0.0000000  0 10G12G25G05G26G20G11G31G29G28G18
 -10598767.567 7  -7616367.72445  22859075.219    22859067.789
        44.600          32.700
 -22369573.188 8 -17384552.70646  20698310.484    20698304.695
        48.800          41.900
 -20254341.365 8 -14876221.42146  21339209.047    21339200.797
        49.300          40.600
    195339.777 5   -374144.64043  24567537.086    24567533.059
        34.900          20.900
 -20983739.319 8 -15157636.49846  21219720.445    21219711.609
        49.700          40.000
 -18625676.735 7 -14241704.34145  22142314.133    22142306.762
        44.600          35.400
   -996041.865 6  -4372164.31146  24138615.344    24138606.566
        41.000          36.100
 -16810463.378 8 -12848837.54047  20927043.930    20927035.738
        50.500          43.300
  -1633493.029 6  -1335829.37543  23907233.102    23907226.961
        38.000          22.000
   -559721.909 5  -2636829.27642  24353895.070    24353890.105
        30.300          13.900
 23  8  4 15 25 15.0000000  0 10G12G25G05G26G20G11G31G29G28G18
 -10544887.972 7  -7574383.67345  22869327.984    22869320.496
        45.000          33.100
 -22342974.397 8 -17363826.39146  20703372.336    20703366.371
        48.800          41.800
 -20284385.954 8 -14899632.79246  21333491.094    21333483.313
        48.800          40.100
    146324.369 5   -412338.51543  24558210.016    24558206.281
        34.200          20.400
 -20977774.418 8 -15152988.52946  21220855.438    21220846.367
        49.900          40.100
 -18585402.232 7 -14210321.65745  22149977.805    22149970.434
        45.100          35.100
   -992706.412 6  -4369565.27145  24139248.055    24139241.270
        39.400          35.400
 -16834143.617 8 -12867289.68147  20922537.773    20922529.875
        50.200          43.800
  -1607390.752 6  -1315489.97343  23912200.313    23912193.176
        38.600          22.200
   -610099.745 5  -2676084.58042  24344307.773    24344304.039
        30.100          16.300
 23  8  4 15 25 30.0000000  0 10G12G25G05G26G20G11G31G29G28G18
 -10490946.940 7  -7532351.76945  22879593.250    22879585.527
        44.300          33.400
 -22316240.310 8 -17342994.64946  20708460.102    20708453.375
        49.600          41.800
 -20314294.175 8 -14922937.90046  21327800.750    21327791.855
        48.800          40.800
     97366.776 5   -450487.28443  24548892.930    24548890.309
        33.900          20.900
 -20971663.743 8 -15148226.97246  21222018.281    21222009.563
        49.900          40.100
 -18545066.781 7 -14178891.47246  22157654.469    22157645.984
        45.800          36.000
   -989229.028 6  -4366855.64745  24139911.977    24139902.730
        40.700          34.700
 -16857746.314 8 -12885681.38847  20918046.320    20918037.953
        49.700          43.800
  -1581178.439 6  -1295064.84743  23917189.508    23917181.375
        39.300          22.000
   -660444.06415  -2715313.79752  24334726.938    24334723.848
        30.800          17.400
 23  8  4 15 25 45.0000000  0 10G12G25G05G26G20G11G31G29G28G18
 -10436944.807 7  -7490272.25845  22889869.383    22889862.070
        45.000          33.400
 -22289371.122 8 -17322057.63946  20713572.984    20713566.902
        49.400          41.300
 -20344066.121 8 -14946136.80346  21322135.227    21322126.391
        49.700          40.500
     48467.261 5   -488590.84342  24539588.461    24539584.785
        32.400          17.800
 -20965407.574 8 -15143352.05446  21223208.508    21223199.672
        49.000          39.900
 -18504670.599 7 -14147413.95346  22165341.375    22165333.535
        46.600          36.000
   -985609.800 6  -4364035.51345  24140598.289    24140591.152
        38.800          34.200
 -16881271.265 8 -12904012.52947  20913569.953    20913561.059
        50.600          43.400
  -1554856.452 6  -1274554.19943  23922197.813    23922190.852
        38.500          22.800
   -710754.616 5  -2754516.76542  24325153.773    24325150.156
        32.000          15.600
 23  8  4 15 26  0.0000000  0 10G12G25G05G26G20G11G31G29G28G18
 -10382881.440 7  -7448145.03145  22900157.477    22900150.047
        45.300          32.900
 -22262366.521 8 -17301015.12946  20718711.727    20718705.820
        49.700          41.600
 -20373700.670 8 -14969228.65946  21316495.672    21316486.953
        48.600          41.000
      -373.364 5   -526648.48042  24530295.273    24530291.070
        31.600          16.900
 -20959005.313 8 -15138363.29246  21224427.039    21224418.555
        50.200          39.800
 -18464213.388 7 -14115888.91045  22173038.828    22173032.336
        44.600          35.100
   -981848.331 6  -4361104.51945  24141316.750    24141307.797
        41.300          34.800
 -16904718.151 8 -12922282.83447  20909108.367    20909098.945
        50.400          43.800
  -1528424.581 6  -1253957.94643  23927227.023    23927220.414
        39.400          22.000
   -761030.768 5  -2793693.01542  24315584.828    24315582.266
        32.200          16.300
 23  8  4 15 26 15.0000000  0 10G12G25G05G26G20G11G31G29G28G18
 -10328754.012 7  -7405967.86645  22910457.633    22910449.793
        44.400          32.400
 -22235223.635 8 -17279864.84446  20723876.469    20723870.504
        49.200          41.600
 -20403194.380 8 -14992210.77546  21310882.695    21310874.855
        49.300          40.900
    -49151.78314   -564657.64352  24521013.188    24521008.867
        29.900          16.900
 -20952453.959 8 -15133258.35246  21225673.602    21225664.883
        49.900          40.300
 -18423692.321 7 -14084314.08445  22180750.836    22180742.938
        45.100          35.600
   -977941.729 6  -4358060.45845  24142056.773    24142051.277
        37.900          34.600
 -16928083.470 8 -12940489.58447  20904661.938    20904652.809
        51.100          43.200
  -1501880.014 6  -1233273.90743  23932279.430    23932271.473
        40.100          22.800
   -811269.334 5  -2832839.86442  24306027.789    24306022.059
        32.600          14.800
 23  8  4 15 26 30.0000000  0 10G12G25G05G26G20G11G31G29G28G18
 -10274569.530 7  -7363746.25545  22920769.094    22920761.020
        45.000          34.000
 -22207949.427 8 -17258612.24246  20729066.773    20729060.750
        48.700          41.400
 -20432553.923 8 -15015088.33346  21305296.563    21305287.902
        49.000          40.800
    -97874.17614   -602623.11152  24511740.492    24511736.934
        28.000          16.300
 -20945760.536 8 -15128042.71446  21226947.352    21226938.809
        49.100          40.200
 -18383114.447 7 -14052694.98445  22188472.688    22188465.258
        46.400          35.700
   -973896.727 6  -4354908.50245  24142830.180    24142820.641
        40.800          34.100
 -16951373.764 8 -12958637.87247  20900229.039    20900221.023
        50.200          43.300
  -1475229.906 6  -1212507.60144  23937350.086    23937343.184
        39.700          24.100
   -861477.006 5  -2871962.63242  24296473.891    24296467.340
        35.100          16.300
 23  8  4 15 26 45.0000000  0 10G12G25G05G26G20G11G31G29G28G18
 -10220325.130 7  -7321477.97045  22931090.742    22931083.957
        45.000          32.300
 -22180540.777 8 -17237254.87846  20734283.000    20734276.801
        49.100          41.300
 -20461775.845 8 -15037858.65846  21299735.336    21299727.496
        49.800          40.500
   -146537.22114   -640542.33952  24502477.711    24502476.555
        28.000          17.400
 -20938921.492 8 -15122713.58946  21228249.281    21228239.977
        50.000          40.300
 -18342476.648 7 -14021029.19645  22196205.148    22196197.953
        45.100          34.300
   -969710.131 6  -4351646.23245  24143625.133    24143617.293
        39.700          34.200
 -16974585.573 8 -12976724.99947  20895812.070    20895803.703
        50.300          43.700
  -1448471.212 6  -1191656.68944  23942441.930    23942435.730
        39.800          26.800
   -911650.233 5  -2911058.57742  24286925.086    24286919.180
        34.300          16.900
 23  8  4 15 27  0.0000000  0 10G12G25G05G26G20G11G31G29G28G18
 -10166022.449 7  -7279164.27345  22941424.242    22941417.105
        44.800          32.300
 -22152999.248 8 -17215793.97546  20739523.367    20739517.285
        49.100          41.200
 -20490861.248 8 -15060522.61046  21294200.438    21294192.539
        48.800          40.100
   -195141.68414   -678415.94353  24493229.727    24493227.633
        28.300          19.300
 -20931938.400 8 -15117272.23946  21229577.805    21229569.145
        49.000          40.300
 -18301780.469 7 -13989317.95245  22203949.625    22203942.781
        45.100          35.800
   -965383.269 6  -4348274.66745  24144448.430    24144440.473
        40.600          34.200
 -16997720.152 8 -12994751.95147  20891409.773    20891401.289
        50.300          43.800
  -1421605.545 6  -1170722.43844  23947556.078    23947547.828
        40.700          26.500
   -961790.171 5  -2950128.63342  24277382.734    24277378.238
        32.000          16.300
 23  8  4 15 27 15.0000000  0 10G12G25G05G26G20G11G31G29G28G18
 -10111658.848 7  -7236803.08945  22951769.078    22951761.941
        43.500          31.400
 -22125322.302 8 -17194227.55247  20744789.977    20744784.129
        49.300          42.100
 -20519806.915 8 -15083077.67446  21288692.430    21288684.180
        49.500          40.500
  -1819104.75514  -1943841.70753  24483992.250    24483990.098
        28.000          18.600
 -20924808.606 8 -15111716.56246  21230934.242    21230925.699
        49.300          39.500
 -18261023.528 7 -13957559.32245  22211706.336    22211697.852
        46.900          35.500
   -960913.647 6  -4344791.90445  24145298.984    24145290.852
        40.300          34.700
 -17020774.628 8 -13012716.48847  20887022.758    20887014.742
        50.400          43.600
  -1394630.514 6  -1149702.99643  23952687.625    23952680.957
        38.800          23.600
  -2587313.95615  -4216770.50152  24267848.766    24267844.621
        30.100          16.300
 23  8  4 15 27 30.0000000  0 10G12G25G05G26G20G11G31G29G28G18
 -10057232.267 7  -7194392.81845  22962125.820    22962118.918
        43.900          31.400
 -22097507.635 8 -17172553.81446  20750083.727    20750077.000
        49.400          41.400
 -20548610.148 8 -15105521.73946  21283211.734    21283203.719
        49.600          40.700
  -1867583.50214  -1981617.33153  24474769.055    24474764.617
        26.400          20.100
 -20917529.809 8 -15106044.78646  21232319.586    21232310.516
        49.100          39.900
 -18220203.516 7 -13925751.53545  22219473.664    22219465.824
        45.700          34.800
   -956298.822 6  -4341195.97145  24146177.031    24146169.602
        40.000          35.100
 -17043746.662 8 -13030616.77547  20882651.586    20882643.219
        49.700          43.800
  -1367543.940 6  -1128596.59943  23957841.836    23957835.109
        37.600          22.200
  -2637379.11314  -4255782.32552  24258322.203    24258317.297
        29.600          15.600
 23  8  4 15 27 45.0000000  0 10G12G25G05G26G20G11G31G29G28G18
 -10002747.738 7  -7151937.41245  22972494.406    22972487.445
        44.100          33.100
 -22069560.202 8 -17150776.62246  20755401.836    20755395.461
        49.000          41.400
 -20577275.600 8 -15127858.45946  21277757.000    21277748.691
        48.600          41.100
  -1916002.30114  -2019346.28953  24465553.641    24465550.492
        26.800          20.400
 -20910106.747 8 -15100260.59546  21233732.109    21233723.449
        49.800          39.700
 -18179325.353 7 -13893898.48145  22227251.781    22227244.879
        45.300          34.200
   -951543.591 6  -4337490.63446  24147083.859    24147075.375
        41.300          36.400
 -17066640.531 8 -13048456.16347  20878295.328    20878286.551
        50.400          43.600
  -1340350.883 6  -1107407.24643  23963017.016    23963009.762
        37.500          23.800
  -2687410.08414  -4294767.40052  24248798.695    24248796.895
        29.100          16.300
 23  8  4 15 28  0.0000000  0  9G12G25G05G20G11G31G29G28G18
  -9948206.487 7  -7109437.81845  22982873.875    22982866.621
        43.000          32.000
 -22041481.189 8 -17128896.90446  20760745.227    20760738.734
        49.000          41.500
 -20605804.018 8 -15150088.39746  21272327.938    21272319.805
        48.800          40.600
 -20902540.386 8 -15094364.74246  21235172.102    21235163.207
        49.500          39.800
 -18138390.374 7 -13862001.11746  22235043.125    22235034.699
        46.500          36.100
   -946649.073 6  -4333676.73445  24148012.625    24148006.602
        39.000          35.900
 -17089457.114 8 -13066235.31847  20873953.172    20873944.980
        50.200          43.500
  -1313052.550 6  -1086135.84243  23968213.305    23968205.289
        37.000          22.900
  -2737407.77115  -4333726.58852  24239287.008    24239282.805
        32.600          17.800
 23  8  4 15 28 15.0000000  0  9G12G25G05G20G11G31G29G28G18
  -9893607.000 7  -7066892.82845  22993264.578    22993256.094
        45.100          31.800
 -22013268.897 8 -17106913.33546  20766114.234    20766107.273
        49.000          41.600
 -20634193.165 8 -15172209.79046  21266925.781    21266917.473
        49.600          41.600
 -20894828.840 8 -15088355.76046  21236639.617    21236630.371
        49.100          39.400
 -18097396.828 7 -13830058.12345  22242842.555    22242835.594
        46.100          35.100
   -941613.401 6  -4329752.83745  24148973.109    24148964.566
        40.200          34.900
 -17112194.480 8 -13083952.75047  20869626.289    20869617.863
        49.900          43.600
  -1285647.391 5  -1064781.20643  23973427.383    23973419.953
        35.200          22.600
  -2787370.01015  -4372658.13852  24229777.211    24229775.762
        31.300          16.300
 23  8  4 15 28 30.0000000  0  9G12G25G05G20G11G31G29G28G18
  -9838948.769 7  -7024302.05645  23003663.867    23003656.906
        43.100          31.400
 -21984922.732 8 -17084825.44346  20771507.813    20771501.320
        49.400          41.600
 -20662442.013 8 -15194221.88246  21261549.688    21261541.730
        49.100          41.100
 -20886971.666 8 -15082233.30046  21238134.805    21238125.793
        48.800          39.500
 -18056344.216 7 -13798069.10545  22250654.516    22250647.027
        45.300          33.500
   -936435.824 6  -4325718.44345  24149955.766    24149948.980
        37.500          32.300
 -17134851.679 8 -13101607.71647  20865315.039    20865306.379
        50.000          43.700
  -1258135.047 6  -1043343.06943  23978661.734    23978655.066
        36.200          21.700
  -2837296.083 5  -4411561.53442  24220277.328    24220275.469
        32.600          16.300
 23  8  4 15 28 45.0000000  0  9G12G25G05G20G11G31G29G28G18
  -9784232.218 7  -6981665.84445  23014075.789    23014069.941
        42.900          30.700
 -21956443.078 8 -17062633.54246  20776927.398    20776921.023
        49.000          41.300
 -20690550.212 8 -15216124.38246  21256201.172    21256192.863
        48.900          41.000
 -20878969.091 8 -15075997.54446  21239657.070    21239648.645
        48.100          39.300
 -18015232.867 7 -13766034.33045  22258478.352    22258470.395
        46.500          35.200
   -931116.974 6  -4321573.85445  24150969.820    24150961.395
        39.900          34.100
 -17157428.606 8 -13119200.13747  20861018.680    20861009.844
        49.600          44.200
  -1230515.887 5  -1021821.66043  23983918.617    23983910.895
        34.700          22.800
  -2887185.794 6  -4450436.65542  24210785.680    24210781.184
        36.700          17.400
 23  8  4 15 29  0.0000000  0 10G12G25G05G26G20G11G31G29G28G18
  -9729464.793 7  -6938989.99645  23024498.867    23024491.730
        43.400          31.200
 -21927837.418 8 -17040343.44646  20782370.930    20782364.496
        49.000          41.600
 -20718524.948 8 -15237922.87846  21250877.695    21250869.680
        50.000          41.200
   -923590.78415  -2002573.31754  24419662.188    24419654.113
        33.600          26.400
 -20870828.402 7 -15069654.16146  21241206.539    21241197.996
        47.700          39.600
 -17974070.370 7 -13733959.68945  22266311.453    22266303.789
        46.700          34.800
   -925663.777 6  -4317324.69745  24152007.125    24151999.637
        40.400          34.900
 -17179932.345 8 -13136735.52347  20856736.227    20856727.684
        49.400          43.600
  -1202797.531 5  -1000222.97143  23989191.977    23989185.719
        34.000          22.200
  -2937046.407 5  -4489288.99543  24201298.117    24201291.801
        35.600          19.000
 23  8  4 15 29 15.0000000  0 10G12G25G05G26G20G11G31G29G28G18
  -9674635.420 7  -6896265.88945  23034932.852    23034925.832
        43.800          31.600
 -21899094.400 8 -17017946.32646  20787840.258    20787834.176
        48.900          41.900
 -20746354.478 8 -15259608.22146  21245582.281    21245573.797
        49.500          41.300
   -971640.234 5  -2040014.45244  24410517.734    24410510.832
        35.200          25.600
 -20862538.146 7 -15063194.24146  21242784.313    21242775.359
        47.700          39.100
 -17932845.347 7 -13701836.32045  22274155.070    22274148.695
        44.700          34.300
   -920065.062 6  -4312962.05846  24153072.430    24153065.000
        39.700          36.800
 -17202351.399 8 -13154204.92447  20852470.289    20852461.746
        50.200          43.500
  -1174968.670 5   -978538.22343  23994487.805    23994481.547
        33.800          21.100
  -2986866.198 5  -4528109.54542  24191816.766    24191810.801
        35.200          17.400
 23  8  4 15 29 30.0000000  0 10G12G25G05G26G20G11G31G29G28G18
  -9619748.128 7  -6853496.61145  23045377.680    23045369.664
        43.300          31.200
 -21870217.818 8 -16995445.11346  20793335.188    20793329.105
        49.000          41.800
 -20774042.031 8 -15281182.94846  21240313.227    21240304.684
        49.800          41.100
  -1019625.430 5  -2077405.49144  24401384.031    24401378.535
        34.900          25.000
 -20854101.892 8 -15056620.55346  21244389.617    21244380.957
        48.000          39.800
 -17891561.648 7 -13669667.26145  22282011.898    22282004.469
        45.500          34.200
   -914324.354 6  -4308488.81845  24154164.250    24154157.875
        38.800          35.900
 -17224689.339 8 -13171611.10747  20848219.469    20848210.750
        49.800          43.600
  -1147033.194 5   -956770.36143  23999803.875    23999797.676
        34.800          19.900
  -3036648.659 5  -4566901.04943  24182342.500    24182337.652
        33.400          18.600
 23  8  4 15 29 45.0000000  0 10G12G25G05G26G20G11G31G29G28G18
  -9564803.302 7  -6810682.51445  23055832.188    23055825.285
        43.200          31.400
 -21841208.105 8 -16972840.16646  20798855.484    20798849.695
        48.800          41.300
 -20801587.413 8 -15302646.87946  21235071.422    21235062.703
        49.900          41.000
  -1067546.064 5  -2114746.24244  24392266.141    24392259.648
        34.500          25.700
 -20845519.936 8 -15049933.32646  21246022.719    21246013.766
        48.100          40.200
 -17850219.734 7 -13637452.79645  22289879.727    22289871.828
        46.400          34.700
   -908442.070 6  -4303905.23545  24155283.266    24155276.949
        37.900          34.500
 -17246945.791 8 -13188953.81047  20843984.242    20843975.406
        49.600          43.800
  -1118991.767 5   -934919.92743  24005140.320    24005133.887
        35.700          21.800
  -3086393.723 5  -4605663.33142  24172875.969    24172871.355
        32.400          16.900
 23  8  4 15 30  0.0000000  0 10G12G25G05G26G20G11G31G29G28G18
  -9509802.700 7  -6767824.96845  23066297.977    23066292.012
        42.000          31.600
 -21812066.964 8 -16950132.80246  20804400.898    20804394.934
        49.300          41.400
 -20828992.258 8 -15324001.30646  21229856.469    21229848.336
        49.300          41.200
  -1115403.474 5  -2152037.74744  24383158.602    24383153.047
        35.000          24.700
 -20836794.166 7 -15043134.03046  21247683.242    21247674.465
        47.600          39.800
 -17808821.315 7 -13605194.32145  22297756.391    22297749.488
        45.600          34.200
   -902419.767 6  -4299212.55245  24156431.406    24156422.395
        39.400          33.700
 -17269122.319 8 -13206234.22547  20839764.117    20839755.516
        48.800          43.900
  -1090846.122 6   -912988.30943  24010496.023    24010489.883
        37.800          22.800
  -3136102.891 5  -4644397.68742  24163417.461    24163411.613
        34.200          17.400
 23  8  4 15 30 15.0000000  0 10G12G25G05G26G20G11G31G29G28G18
  -9454746.493 7  -6724924.09445  23076776.258    23076769.238
        43.000          32.300
 -21782794.499 8 -16927323.10646  20809971.664    20809965.289
        49.500          41.000
 -20856256.122 8 -15345245.87846  21224668.148    21224660.074
        49.400          41.200
  -1163197.082 5  -2189279.53344  24374063.602    24374058.223
        35.000          25.800
 -20827924.200 7 -15036222.39046  21249371.133    21249362.180
        47.900          39.400
 -17767366.517 7 -13572891.93845  22305645.063    22305638.102
        44.600          34.000
   -896257.492 6  -4294410.82145  24157602.797    24157595.660
        37.700          33.200
 -17291218.765 8 -13223452.23747  20835558.859    20835550.609
        49.800          43.800
  -1062596.439 6   -890975.61344  24015872.922    24015865.023
        37.100          24.000
  -3185775.785 5  -4683103.85243  24153965.344    24153959.262
        33.900          19.600
 23  8  4 15 30 30.0000000  0 10G12G25G05G26G20G11G31G29G28G18
  -9399634.650 7  -6681979.88845  23087264.125    23087257.164
        43.400          32.400
 -21753390.647 8 -16904411.03546  20815566.633    20815560.609
        49.500          41.100
 -20883378.456 8 -15366380.15746  21219507.047    21219498.563
        49.500          41.700
  -1210926.426 5  -2226471.24144  24364979.734    24364976.645
        33.300          24.000
 -20818910.024 8 -15029198.36346  21251086.703    21251077.457
        48.700          39.900
 -17725855.281 7 -13540545.54445  22313544.984    22313538.082
        45.700          34.600
   -889955.088 6  -4289499.85245  24158804.633    24158794.918
        41.400          34.900
 -17313234.540 8 -13240607.39047  20831369.883    20831361.574
        49.500          43.900
  -1034242.790 6   -868881.86744  24021268.023    24021261.414
        36.300          24.000
  -3235412.097 5  -4721781.43242  24144519.102    24144514.430
        33.100          17.400
 23  8  4 15 30 45.0000000  0 10G12G25G05G26G20G11G31G29G28G18
  -9344467.391 7  -6638992.49245  23097761.898    23097755.113
        42.500          32.300
 -21723855.478 8 -16881396.63346  20821187.563    20821181.480
        49.600          41.500
 -20910358.851 8 -15387403.83646  21214373.180    21214365.047
        49.400          41.300
  -1258590.889 5  -2263612.36543  24355909.031    24355906.293
        32.600          23.200
 -20809751.659 8 -15022062.00246  21252829.367    21252820.883
        48.800          39.800
 -17684287.744 7 -13508155.28545  22321455.336    22321447.320
        45.800          34.200
   -883512.445 6  -4284479.65845  24160026.586    24160019.742
        38.800          33.600
 -17335169.419 8 -13257699.51347  20827195.695    20827187.211
        49.500          43.900
  -1005785.356 6   -846707.29443  24026683.477    24026676.164
        37.500          21.800
  -3285011.525 5  -4760430.27043  24135080.719    24135075.340
        33.600          19.000
 23  8  4 15 31  0.0000000  0 10G12G25G05G26G20G11G31G29G28G18
  -9289244.978 7  -6595962.10645  23108269.891    23108263.516
        42.900          32.100
 -21694189.296 8 -16858280.14946  20826832.781    20826826.641
        49.100          41.700
 -20937196.584 8 -15408316.35846  21209265.859    21209257.551
        49.900          41.100
  -1306190.409 5  -2300702.91044  24346851.281    24346848.426
        31.300          25.400
 -20800449.121 8 -15014813.28146  21254599.563    21254590.316
        48.100          40.400
 -17642664.177 7 -13475721.36845  22329375.680    22329367.898
        45.000          34.700
   -876929.742 6  -4279350.34345  24161282.344    24161273.215
        39.800          35.600
 -17357023.327 8 -13274728.53847  20823037.094    20823028.551
        48.700          43.800
   -977224.467 6   -824452.11043  24032118.117    24032111.449
        37.400          23.300
  -3334573.842 5  -4799050.19843  24125649.789    24125643.590
        35.200          19.300
 23  8  4 15 31 15.0000000  0 10G12G25G05G26G20G11G31G29G28G18
  -9233968.059 7  -6552889.25845  23118790.227    23118782.387
        43.600          31.600
 -21664392.470 8 -16835061.87446  20832502.891    20832496.281
        49.700          41.600
 -20963892.181 8 -15429118.11346  21204185.633    21204177.852
        49.900          41.300
  -1353724.724 5  -2337742.60944  24337805.758    24337803.664
        32.200          27.000
 -20791002.725 8 -15007452.46846  21256397.102    21256388.793
        48.000          39.900
 -17600984.894 7 -13443244.07945  22337306.945    22337299.809
        45.000          34.300
   -870207.349 6  -4274112.13145  24162560.086    24162552.949
        39.500          34.800
 -17378796.269 8 -13291694.47547  20818893.992    20818885.566
        49.500          44.000
   -948560.661 6   -802116.72643  24037571.945    24037566.922
        36.700          22.300
  -3384099.196 6  -4837641.32343  24116225.352    24116218.742
        36.700          18.600
 23  8  4 15 31 30.0000000  0 10G12G25G05G26G20G11G31G29G28G18
  -9178636.875 7  -6509774.12445  23129319.594    23129311.402
        44.400          32.300
 -21634465.188 8 -16811741.94946  20838197.844    20838191.879
        49.500          41.400
 -20990445.502 8 -15449809.01846  21199132.602    21199124.527
        49.100          41.000
  -1401193.452 5  -2374731.22944  24328773.227    24328770.547
        32.900          29.600
 -20781412.606 7 -14999979.67046  21258222.109    21258213.449
        47.900          39.800
 -17559250.278 7 -13410723.60445  22345249.586    22345241.453
        45.800          34.900
   -863345.280 6  -4268765.06245  24163865.742    24163858.957
        37.700          35.100
 -17400488.081 8 -13308597.18447  20814766.203    20814757.660
        49.600          43.900
   -919794.262 6   -779701.39543  24043046.672    24043039.711
        36.900          21.100
  -3433587.405 6  -4876203.50143  24106807.758    24106801.441
        37.600          18.300
 23  8  4 15 31 45.0000000  0 10G12G25G05G26G20G11G31G29G28G18
  -9123251.642 7  -6466616.85145  23139858.734    23139851.539
        43.000          31.500
 -21604407.494 8 -16788320.40146  20843917.594    20843911.629
        49.500          41.300
 -21016856.169 8 -15470388.75846  21194107.563    21194098.785
        49.600          41.000
  -1448596.172 5  -2411668.37844  24319753.195    24319749.637
        33.400          28.400
 -20771678.658 8 -14992394.79246  21260074.352    21260065.750
        48.000          39.800
 -17517460.247 7 -13378159.98745  22353201.109    22353194.500
        44.700          34.600
   -856343.405 6  -4263309.08645  24165198.164    24165191.496
        40.400          35.100
 -17422098.380 8 -13325436.38047  20810653.422    20810645.055
        49.200          43.800
   -890925.287 5   -757206.15243  24048539.391    24048532.898
        33.300          19.300
  -3483038.163 5  -4914736.50643  24097396.555    24097391.414
        35.700          18.600
 23  8  4 15 32  0.0000000  0 10G12G25G05G26G20G11G31G29G28G18
  -9067812.118 7  -6423417.29745  23150407.367    23150400.523
        42.500          31.600
 -21574219.244 8 -16764797.11946  20849662.383    20849655.715
        49.300          41.100
 -21043123.174 8 -15490856.55646  21189108.773    21189100.523
        49.100          41.100
  -1495932.140 5  -2448553.53144  24310743.352    24310742.195
        31.600          26.500
 -20761800.615 8 -14984697.64046  21261954.016    21261945.238
        48.000          39.700
 -17475614.726 7 -13345553.12045  22361163.914    22361157.305
        44.000          34.200
   -849201.681 6  -4257744.14445  24166557.461    24166550.500
        38.600          34.300
 -17443626.753 8 -13342211.74347  20806557.078    20806548.594
        49.900          43.800
   -861953.764 5   -734630.94443  24054053.086    24054046.125
        34.700          19.300
  -3532450.983 6  -4953239.93243  24087995.023    24087988.590
        37.900          19.000
 23  8  4 15 32 15.0000000  0 10G12G25G05G26G20G11G31G29G28G18
  -9012318.867 7  -6380175.87145  23160967.781    23160960.527
        43.200          31.400
 -21543900.876 8 -16741172.44246  20855431.852    20855425.652
        49.500          41.100
 -21069246.499 8 -15511212.39746  21184137.344    21184129.152
        49.500          41.100
  -1543201.290 5  -2485386.65644  24301747.023    24301747.156
        32.000          27.300
 -20751778.765 7 -14976888.41346  21263861.039    21263852.730
        47.300          39.500
 -17433714.134 7 -13312903.35445  22369138.375    22369130.887
        45.800          35.300
   -841920.288 6  -4252070.34345  24167944.063    24167935.402
        40.100          34.300
 -17465073.193 8 -13358923.25947  20802475.844    20802467.359
        49.000          44.100
   -832880.294 6   -711976.33043  24059585.883    24059579.742
        37.400          20.100
  -3581825.871 6  -4991713.80743  24078599.680    24078592.777
        37.700          18.600
 23  8  4 15 32 30.0000000  0 10G12G25G05G26G20G11G31G29G28G18
  -8956772.912 7  -6336893.37445  23171538.602    23171530.938
        43.200          32.600
 -21513453.381 8 -16717447.16346  20861225.461    20861219.555
        49.100          40.700
 -21095226.600 8 -15531456.64046  21179193.773    21179185.699
        50.200          41.800
  -1590403.982 5  -2522168.01144  24292765.023    24292764.512
        33.400          27.500
 -20741613.712 8 -14968967.61646  21265794.836    21265786.996
        48.300          39.500
 -17391759.517 7 -13280211.47545  22377122.625    22377115.020
        45.400          35.100
   -834500.101 6  -4246288.39345  24169354.828    24169347.340
        38.100          33.600
 -17486438.380 8 -13375571.46547  20798410.125    20798401.758
        49.900          44.000
   -803705.953 6   -689243.09043  24065138.242    24065130.695
        37.900          20.600
  -3631163.548 6  -5030158.67843  24069210.734    24069204.242
        37.000          18.600
 23  8  4 15 32 45.0000000  0 10G12G25G05G26G20G11G31G29G28G18
  -8901173.800 7  -6293569.45345  23182118.750    23182111.438
        43.900          31.900
 -21482876.320 8 -16693620.90146  20867044.383    20867038.418
        49.600          40.800
 -21121063.036 8 -15551588.91646  21174277.531    21174269.223
        49.800          41.600
  -1637539.440 5  -2558896.95444  24283796.391    24283795.000
        34.200          28.300
 -20731305.452 7 -14960935.22746  21267757.484    21267749.000
        47.800          39.400
 -17349750.400 7 -13247477.15545  22385115.258    22385108.414
        43.700          33.700
   -826940.668 6  -4240397.95145  24170793.297    24170786.160
        38.100          33.200
 -17507721.538 8 -13392155.73947  20794360.141    20794351.598
        48.600          44.100
   -774430.404 6   -666430.98543  24070709.445    24070701.840
        38.500          19.600
  -3680463.197 6  -5068573.90543  24059828.813    24059823.023
        37.200          18.300
 23  8  4 15 33  0.0000000  0 10G12G25G05G26G20G11G31G29G28G18
  -8845522.593 7  -6250204.96945  23192708.773    23192701.578
        42.800          31.900
 -21452170.505 8 -16669694.29446  20872887.156    20872881.309
        49.400          41.400
 -21146755.906 8 -15571609.32746  21169388.414    21169379.754
        49.900          41.400
  -1684607.744 5  -2595573.55944  24274841.953    24274837.574
        35.200          27.200
 -20720854.417 8 -14952791.58746  21269745.734    21269737.367
        48.100          39.500
 -17307687.653 7 -13214701.01145  22393119.781    22393112.938
        43.600          34.000
   -819242.687 6  -4234399.56445  24172257.781    24172251.289
        36.100          33.700
 -17528923.063 8 -13408676.41947  20790325.398    20790317.148
        49.600          43.800
   -745054.448 6   -643540.66443  24076298.711    24076292.219
        37.400          21.700
  -3729725.165 6  -5106959.80042  24050454.734    24050448.477
        37.300          17.400
 23  8  4 15 33 15.0000000  0 10G12G25G05G26G20G11G31G29G28G18
  -8789818.937 7  -6206799.57444  23203307.766    23203300.746
        42.700          29.800
 -21421335.525 8 -16645667.05146  20878755.063    20878748.980
        48.500          40.800
 -21172304.302 8 -15591517.17246  21164526.531    21164518.164
        50.000          41.300
  -1731608.009 6  -2632197.17744  24265900.555    24265893.008
        37.600          27.800
 -20710260.257 8 -14944536.41146  21271762.125    21271753.055
        48.700          39.100
 -17265570.796 7 -13181882.72145  22401135.031    22401127.484
        43.900          34.900
   -811405.698 6  -4228292.82245  24173751.711    24173742.641
        38.900          34.500
 -17550042.248 8 -13425132.93847  20786306.938    20786298.336
        49.900          44.200
   -715577.847 6   -620571.95143  24081907.844    24081900.941
        38.200          21.800
  -3778948.727 6  -5145315.82742  24041087.570    24041080.551
        38.100          17.400
 23  8  4 15 33 30.0000000  0 10G12G25G05G26G20G11G31G29G28G18
  -8734063.880 6  -6163354.15144  23213917.336    23213910.727
        41.300          29.300
 -21390372.386 8 -16621539.94746  20884647.516    20884640.965
        49.800          40.500
 -21197708.735 8 -15611312.83246  21159692.336    21159683.793
        50.200          41.200
  -1778540.682 6  -2668768.10544  24256970.086    24256962.012
        37.900          26.800
 -20699523.751 8 -14936170.32046  21273804.797    21273796.488
        48.500          40.200
 -17223400.902 7 -13149023.10245  22409159.039    22409151.902
        44.100          34.700
   -803430.448 6  -4222078.36745  24175268.039    24175260.375
        38.400          35.300
 -17571079.594 8 -13441525.67147  20782303.359    20782294.875
        49.200          44.700
   -686001.743 6   -597525.68743  24087535.586    24087529.680
        36.500          20.400
  -3828134.489 6  -5183642.34242  24031728.789    24031720.891
        38.600          17.800
 23  8  4 15 33 45.0000000  0 10G12G25G05G26G20G11G31G29G28G18
  -8678257.436 7  -6119868.66144  23224538.977    23224530.316
        43.000          29.100
 -21359281.064 8 -16597312.95646  20890563.922    20890557.664
        49.100          40.800
 -21222968.851 8 -15630996.04246  21154885.164    21154877.031
        50.000          41.300
  -1825405.163 6  -2705285.88444  24248051.633    24248043.090
        36.200          25.000
 -20688644.627 8 -14927693.10046  21275875.297    21275866.344
        48.100          40.500
 -17181177.855 7 -13116122.07345  22417194.344    22417186.738
        43.200          33.700
   -795316.937 6  -4215756.16145  24176810.703    24176803.977
        39.900          34.500
 -17592034.764 8 -13457854.37647  20778315.836    20778307.469
        49.500          44.000
   -656326.128 6   -574401.86843  24093185.883    24093177.281
        38.500          21.700
  -3877282.165 6  -5221939.21542  24022375.992    24022368.094
        39.200          17.800
 23  8  4 15 34  0.0000000  0 10G12G25G05G26G20G11G31G29G28G18
  -8622399.694 7  -6076343.21544  23235166.945    23235159.633
        42.100          29.700
 -21328061.513 8 -16572986.06346  20896504.680    20896498.773
        49.000          41.000
 -21248084.119 8 -15650566.38746  21150106.109    21150097.684
        50.500          41.500
  -1872200.935 6  -2741750.08744  24239146.508    24239138.434
        36.400          26.500
 -20677622.780 7 -14919104.67046  21277972.547    21277964.180
        47.200          39.400
 -17138901.685 7 -13083179.65445  22425239.570    22425231.613
        45.300          35.500
   -787064.893 6  -4209326.00445  24178383.195    24178373.480
        40.600          34.900
 -17612907.371 8 -13474118.75847  20774343.734    20774335.309
        49.800          44.200
   -626551.129 5   -551200.62043  24098850.031    24098843.188
        35.400          22.200
  -3926391.242 6  -5260205.98742  24013032.492    24013023.422
        39.400          17.800
 23  8  4 15 34 15.0000000  0 10G12G25G05G26G20G11G31G29G28G18
  -8566490.616 6  -6032777.74744  23245806.414    23245798.809
        41.000          28.300
 -21296713.608 8 -16548559.13846  20902469.500    20902463.652
        48.900          40.700
 -21273054.031 8 -15670023.45246  21145354.078    21145346.121
        49.400          41.300
  -1918927.192 6  -2778160.12344  24230254.602    24230247.230
        36.600          28.100
 -20666457.964 7 -14910404.83246  21280097.672    21280088.660
        47.800          39.900
 -17096572.274 7 -13050195.71345  22433294.031    22433286.836
        44.700          34.900
   -778674.170 6  -4202787.82245  24179978.883    24179970.926
        39.200          34.300
 -17633696.821 8 -13490318.33747  20770387.961    20770379.301
        49.500          44.400
   -596676.609 6   -527921.80843  24104534.656    24104527.930
        36.500          20.400
  -3975461.272 6  -5298442.30143  24003692.898    24003686.230
        37.600          20.600
 23  8  4 15 34 30.0000000  0 10G12G25G05G26G20G11G31G29G28G18
  -8510529.353 6  -5989171.65744  23256454.422    23256448.398
        40.600          29.800
 -21265236.494 8 -16524031.53546  20908460.000    20908453.508
        49.100          40.700
 -21297877.477 8 -15689366.39146  21140630.555    21140622.422
        50.000          41.600
  -1965582.589 6  -2814514.96744  24221374.141    24221369.586
        36.500          27.100
 -20655149.267 8 -14901592.89146  21282249.289    21282240.512
        48.200          40.300
 -17054188.744 7 -13017169.61945  22441359.344    22441352.090
        44.600          35.300
   -770143.809 6  -4196140.79445  24181601.547    24181595.055
        37.900          34.000
 -17654401.985 8 -13506452.23947  20766447.680    20766439.254
        49.900          44.200
   -566701.992 5   -504565.00743  24110236.914    24110231.535
        32.200          18.600
  -4024491.039 6  -5336647.27043  23994362.242    23994355.867
        37.500          19.900
 23  8  4 15 34 45.0000000  0 10G12G25G05G26G20G11G31G29G28G18
  -8454517.628 6  -5945526.22844  23267114.008    23267107.105
        40.600          28.400
 -21233631.879 8 -16499404.58646  20914474.328    20914468.070
        49.100          40.700
 -21322555.219 8 -15708595.80346  21135935.039    21135926.613
        50.200          41.600
  -2012168.296 5  -2850815.50743  24212508.797    24212503.949
        35.800          22.600
 -20643698.320 8 -14892670.08846  21284428.297    21284419.637
        48.700          39.800
 -17011752.783 7 -12984102.68345  22449434.125    22449427.984
        44.300          34.400
   -761475.368 6  -4189386.17845  24183251.211    24183243.840
        38.500          33.800
 -17675024.109 8 -13522521.43547  20762523.531    20762514.813
        50.800          44.700
   -536628.896 6   -481131.48343  24115961.641    24115954.035
        36.100          18.300
  -4073481.755 5  -5374821.87243  23985039.000    23985033.152
        35.600          18.300
 23  8  4 15 35  0.0000000  0 10G12G25G05G26G20G11G31G29G28G18
  -8398455.762 6  -5901841.71944  23277782.844    23277774.945
        41.500          28.600
 -21201900.068 8 -16474678.52146  20920512.641    20920506.207
        49.000          41.200
 -21347087.159 8 -15727711.59246  21131266.125    21131258.461
        50.000          41.800
  -2058684.074 5  -2887061.59143  24203657.742    24203652.305
        34.500          20.900
 -20632105.169 7 -14883636.48546  21286634.563    21286625.434
        47.800          39.600
 -16969264.670 7 -12950995.11445  22457520.273    22457513.020
        44.200          34.600
   -752669.174 6  -4182524.22345  24184927.742    24184919.434
        38.600          34.800
 -17695563.290 8 -13538525.99247  20758615.172    20758606.512
        50.000          44.400
   -506457.785 5   -457621.53542  24121701.906    24121695.883
        34.400          17.800
  -4122433.563 6  -5412966.06242  23975724.188    23975716.934
        36.900          16.900
 23  8  4 15 35 15.0000000  0 10G12G25G05G26G20G11G31G29G28G18
  -8342344.925 6  -5858119.03444  23288460.516    23288452.969
        41.100          28.700
 -21170041.982 7 -16449854.07446  20926574.273    20926569.191
        47.900          40.700
 -21371474.001 8 -15746714.33146  21126625.859    21126617.375
        50.200          41.700
  -2105130.260 5  -2923253.41143  24194817.195    24194813.930
        31.500          19.000
 -20620370.646 8 -14874492.72046  21288867.414    21288858.578
        48.800          39.700
 -16926725.422 7 -12917847.66045  22465615.117    22465607.453
        44.200          33.600
   -743725.970 6  -4175555.51945  24186629.547    24186621.590
        39.900          34.700
 -17716019.877 8 -13554466.19847  20754722.164    20754713.797
        50.500          44.500
   -476189.770 6   -434036.15943  24127463.969    24127455.836
        36.200          18.300
  -4171346.820 6  -5451080.26043  23966416.844    23966409.590
        38.200          19.000
 23  8  4 15 35 30.0000000  0 10G12G25G05G26G20G11G31G29G28G18
  -8286183.931 7  -5814357.28544  23299146.969    23299139.598
        42.400          28.700
 -21138056.321 8 -16424930.21146  20932661.711    20932655.688
        49.300          40.500
 -21395713.911 8 -15765602.56847  21122013.031    21122004.547
        48.700          42.000
  -2151504.968 5  -2959389.63142  24185993.453    24185988.016
        31.500          16.900
 -20608493.398 8 -14865237.75346  21291127.500    21291119.016
        48.200          40.000
 -16884133.594 7 -12884659.27045  22473719.258    22473712.297
        42.700          33.200
   -734644.436 6  -4168479.02045  24188357.094    24188349.547
        39.700          33.500
 -17736392.075 8 -13570340.64447  20750845.719    20750836.707
        50.400          44.400
   -445823.522 6   -410374.15543  24133241.695    24133234.148
        36.700          18.600
  -4220219.926 6  -5489163.17543  23957117.359    23957109.461
        37.500          19.900
 23  8  4 15 35 45.0000000  0 10G12G25G05G26G20G11G31G29G28G18
  -8229973.472 6  -5770556.97844  23309843.289    23309836.328
        41.200          29.800
 -21105943.855 8 -16399907.53346  20938772.242    20938766.336
        48.800          40.600
 -21419807.200 8 -15784376.56046  21117427.867    21117420.027
        50.000          41.800
  -2197808.469 4  -2995470.23842  24177180.266    24177177.059
        29.600          17.400
 -20596474.221 8 -14855872.18546  21293415.164    21293406.211
        48.300          39.800
 -16841489.997 7 -12851430.54145  22481834.836    22481827.699
        43.000          34.600
   -725425.187 6  -4161295.18245  24190112.555    24190104.422
        39.900          34.600
 -17756680.394 8 -13586149.72847  20746985.219    20746976.617
        50.400          44.300
   -415360.029 5   -386636.39143  24139036.508    24139031.367
        34.600          19.600
  -4269053.262 6  -5527215.09443  23947824.664    23947817.176
        37.100          21.500
 23  8  4 15 36  0.0000000  0 10G12G25G05G26G20G11G31G29G28G18
  -8173713.700 6  -5726718.29045  23320548.891    23320543.277
        40.500          30.100
 -21073704.627 8 -16374786.09346  20944907.531    20944901.332
        49.100          40.400
 -21443753.662 8 -15803036.14246  21112871.422    21112863.289
        50.300          41.800
  -2244040.28614  -3031495.01853  24168382.289    24168379.961
        29.100          19.900
 -20584312.864 8 -14846395.82646  21295728.992    21295720.508
        48.400          39.200
 -16798794.767 7 -12818161.58345  22489959.117    22489952.625
        44.500          33.600
   -716068.079 6  -4154003.94745  24191890.961    24191885.465
        39.000          33.600
 -17776884.522 8 -13601893.20347  20743140.047    20743131.973
        49.500          44.600
   -384799.328 6   -362822.91243  24144854.703    24144846.453
        37.500          18.600
  -4317846.520 5  -5565235.74943  23938539.172    23938532.152
        35.900          21.500
 23  8  4 15 36 15.0000000  0 10G12G25G05G26G20G11G31G29G28G18
  -8117405.354 6  -5682841.76045  23331264.430    23331258.816
        40.500          30.600
 -21041339.501 8 -16349566.54446  20951066.141    20951060.117
        49.300          40.800
 -21467553.783 8 -15821581.68946  21108342.227    21108334.152
        50.000          41.800
  -2290200.537 4  -3067464.05643  24159598.336    24159597.180
        27.600          21.800
 -20572010.066 8 -14836809.25046  21298070.430    21298061.711
        48.400          39.600
 -16756048.591 7 -12784852.88145  22498093.383    22498086.188
        44.200          33.400
   -706574.002 6  -4146605.99945  24193700.430    24193691.125
        40.600          34.000
 -17797005.064 8 -13617571.55647  20739310.961    20739302.945
        49.800          44.500
   -354142.370 5   -338934.39043  24150687.328    24150680.777
        35.800          19.000
  -4366600.181 5  -5603225.57543  23929261.000    23929254.859
        35.000          20.400
 23  8  4 15 36 30.0000000  0 10G12G25G05G26G20G11G31G29G28G18
  -8061048.897 7  -5638927.70144  23341989.836    23341982.582
        42.500          29.700
 -21008848.514 8 -16324248.91746  20957248.664    20957243.109
        48.800          40.900
 -21491206.887 8 -15840012.68246  21103841.836    21103832.941
        51.000          41.700
  -2336288.96614  -3103377.07853  24150828.469    24150827.723
        29.600          21.500
 -20559565.860 8 -14827112.49246  21300438.852    21300429.605
        48.900          40.000
 -16713251.629 7 -12751504.63845  22506237.258    22506230.238
        43.600          32.400
   -696942.776 6  -4139101.15145  24195532.047    24195523.797
        40.100          35.200
 -17817041.593 8 -13633184.43447  20735498.484    20735490.176
        50.800          44.700
   -323389.383 5   -314971.07643  24156539.445    24156532.309
        33.000          18.300
  -4415313.926 5  -5641184.37543  23919991.516    23919984.789
        35.900          19.000
 23  8  4 15 36 45.0000000  0 10G12G25G05G26G20G11G31G29G28G18
  -8004645.389 7  -5594976.97145  23352722.836    23352715.699
        42.200          30.200
 -20976232.886 8 -16298834.17246  20963455.406    20963449.266
        48.800          40.400
 -21514713.502 8 -15858329.52147  21099368.008    21099359.699
        49.600          42.000
  -2382306.023 5  -3139234.52543  24142073.547    24142071.102
        30.500          20.900
 -20546981.196 8 -14817306.28446  21302832.945    21302824.344
        48.200          39.500
 -16670404.971 7 -12718117.67445  22514391.469    22514383.863
        44.500          34.500
   -687175.690 6  -4131490.44545  24197389.984    24197383.785
        38.900          34.800
 -17836994.883 8 -13648732.45947  20731701.805    20731693.145
        50.200          44.500
   -292541.657 5   -290933.88943  24162408.648    24162403.270
        34.200          18.300
  -4463988.487 6  -5679112.57143  23910730.055    23910721.980
        36.500          20.100
 23  8  4 15 37  0.0000000  0 10G12G25G05G26G20G11G31G29G28G18
  -7948193.999 7  -5550988.94945  23363465.930    23363458.090
        42.200          30.900
 -20943491.664 8 -16273321.55946  20969686.047    20969680.141
        49.200          40.600
 -21538072.267 8 -15876531.16146  21094922.883    21094914.574
        49.500          41.600
  -2428250.323 5  -3175035.34643  24133332.328    24133327.188
        31.200          22.300
 -20534255.158 8 -14807389.92346  21305255.031    21305246.254
        48.300          39.400
 -16627507.743 7 -12684691.30445  22522554.391    22522547.605
        43.900          34.000
   -677271.713 6  -4123773.10345  24199275.633    24199267.617
        41.100          34.800
 -17856863.556 8 -13664214.54247  20727920.977    20727911.965
        50.000          44.800
   -261598.267 5   -266822.21442  24168299.102    24168291.203
        34.700          17.400
  -4512622.732 5  -5717009.34543  23901473.180    23901467.039
        34.300          19.300
 23  8  4 15 37 15.0000000  0 10G12G25G05G26G20G11G31G29G28G18
  -7891695.307 7  -5506964.06445  23374216.773    23374209.637
        42.700          30.200
 -20910625.341 8 -16247711.46346  20975940.422    20975934.223
        49.100          40.600
 -21561283.316 8 -15894617.69546  21090505.859    21090497.902
        50.000          41.500
  -2474121.870 5  -3210779.34444  24124604.680    24124598.363
        32.500          24.500
 -20521388.148 8 -14797363.70346  21307703.055    21307694.453
        48.600          39.300
 -16584560.410 7 -12651225.90345  22530727.227    22530720.090
        44.000          32.200
   -667231.116 6  -4115949.26945  24201185.234    24201177.570
        40.400          34.000
 -17876647.760 8 -13679630.80947  20724155.961    20724147.418
        50.500          44.700
   -230559.812 5   -242636.49242  24174202.969    24174197.887
        32.200          16.300
  -4561216.621 5  -5754874.62743  23892225.070    23892219.988
        34.700          19.000
 23  8  4 15 37 30.0000000  0 10G12G25G05G26G20G11G31G29G28G18
  -7835149.712 7  -5462902.62045  23384977.727    23384970.648
        42.700          31.100
 -20877634.412 8 -16222004.28146  20982218.164    20982212.316
        49.300          40.300
 -21584346.279 8 -15912588.83246  21086117.477    21086109.109
        50.400          41.500
  -2519920.332 5  -3246466.41643  24115890.047    24115882.500
        34.000          23.900
 -20508380.448 8 -14787227.86246  21310178.523    21310169.980
        49.700          39.500
 -16541563.380 7 -12617721.77945  22538908.297    22538901.688
        43.200          31.900
   -657054.439 6  -4108019.42445  24203123.609    24203115.008
        40.500          34.200
 -17896347.608 8 -13694981.33847  20720406.945    20720398.813
        50.300          44.700
   -199426.909 5   -218377.17742  24180128.063    24180123.273
        31.300          15.600
  -4609770.337 6  -5792708.71543  23882988.469    23882980.043
        37.000          19.900
 23  8  4 15 37 45.0000000  0 10G12G25G05G26G20G11G31G29G28G18
  -7778557.436 6  -5418804.79544  23395745.961    23395739.469
        41.300          29.400
 -20844518.886 8 -16196200.00646  20988519.648    20988514.270
        49.000          41.300
 -21607261.333 8 -15930444.71646  21081756.492    21081748.535
        49.800          41.700
  -2565645.273 5  -3282096.24744  24107188.094    24107180.488
        35.500          25.300
 -20495231.946 8 -14776982.29646  21312680.750    21312672.207
        48.400          39.500
 -16498516.711 7 -12584178.95045  22547100.250    22547093.172
        44.000          31.800
   -646741.459 6  -4099983.36145  24205084.508    24205078.426
        40.200          34.400
 -17915962.852 8 -13710265.95147  20716674.375    20716666.066
        50.500          44.800
  -4894459.72314  -3876844.27452  24186069.367    24186067.273
        26.800          13.900
  -4658283.481 5  -5830511.08543  23873754.617    23873748.242
        34.700          20.400
 23  8  4 15 38  0.0000000  0 10G12G25G05G26G20G11G31G29G28G18
  -7721918.161 6  -5374670.34545  23406524.211    23406518.012
        41.100          30.400
 -20811278.418 8 -16170298.36146  20994845.070    20994839.750
        49.100          40.600
 -21630027.987 8 -15948184.96046  21077424.523    21077415.922
        50.500          41.500
  -2611295.834 5  -3317668.10244  24098499.516    24098493.727
        33.700          27.000
 -20481942.298 8 -14766626.75846  21315209.656    21315201.406
        48.500          39.600
 -16455420.025 7 -12550597.16045  22555302.281    22555295.027
        44.900          33.600
   -636291.661 6  -4091840.63445  24207072.727    24207065.414
        39.700          33.000
 -17935492.672 8 -13725483.99747  20712958.375    20712949.949
        49.700          44.900
  -4863137.82114                  24192029.461
        28.000
  -4706755.295 5  -5868281.28343  23864532.180    23864525.395
        35.300          21.300
 23  8  4 15 38 15.0000000  0 10G12G25G05G26G20G11G31G29G28G18
  -7665232.283 6  -5330499.59945  23417311.039    23417304.723
        41.400          30.200
 -20777913.397 8 -16144299.66946  21001194.539    21001188.574
        48.700          39.700
 -21652645.745 8 -15965809.19646  21073120.758    21073112.449
        50.300          41.700
  -2656871.775 5  -3353181.82144  24089826.641    24089821.438
        35.100          29.000
 -20468511.671 7 -14756161.36046  21317765.375    21317757.184
        47.800          39.500
 -16412273.654 7 -12516976.67545  22563511.375    22563505.234
        42.600          32.100
   -625705.424 6  -4083591.64245  24209087.828    24209080.633
        40.600          34.800
 -17954936.936 8 -13740635.36747  20709258.031    20709249.605
        50.600          44.800
  -4831721.87014                  24198009.867
        29.400
  -4755185.771 5  -5906019.27943  23855314.500    23855309.004
        34.700          21.700
 23  8  4 15 38 30.0000000  0 10G12G25G05G26G20G11G31G29G28G18
  -7608500.410 7  -5286292.94844  23428107.219    23428100.375
        42.000          28.900
 -20744424.346 8 -16118204.33846  21007567.242    21007561.512
        49.800          40.400
 -21675114.929 8 -15983317.64946  21068844.852    21068836.602
        50.600          41.900
  -2702373.085 6  -3388637.36944  24081167.609    24081163.113
        36.300          29.400
 -20454940.503 8 -14745586.45346  21320348.102    21320339.617
        48.700          39.800
 -16369078.081 7 -12483317.83645  22571731.805    22571724.668
        42.600          31.800
   -614983.228 6  -4075236.71545  24211128.422    24211121.402
        40.400          34.000
 -17974295.783 8 -13755720.18547  20705574.367    20705565.590
        50.200          45.200
  -4800212.377 5                  24204006.203
        33.000
  -4803575.147 5  -5943725.29143  23846105.734    23846100.828
        34.600          20.400
 23  8  4 15 38 45.0000000  0 10G12G25G05G26G20G11G31G29G28G18
  -7551723.115 6  -5242050.94344  23438910.984    23438904.609
        41.400          29.500
 -20710811.779 8 -16092012.75546  21013964.070    21013958.105
        48.900          40.500
 -21697435.266 8 -16000710.10846  21064597.344    21064589.328
        50.500          41.700
  -2747799.692 6  -3424034.73245  24072522.844    24072518.523
        36.600          30.900
 -20441229.217 8 -14734902.36046  21322957.680    21322948.609
        48.400          39.800
 -16325833.909 7 -12449621.11345  22579960.805    22579953.844
        42.900          31.500
   -604125.417 6  -4066776.07045  24213195.242    24213186.172
        40.600          33.200
 -17993569.462 8 -13770738.64647  20701906.703    20701898.277
        50.500          45.100
  -4768610.029 5                  24210020.727
        33.000
  -4851923.459 5  -5981399.29543  23836906.383    23836900.359
        35.900          20.900
 23  8  4 15 39  0.0000000  0 10G12G25G05G26G20G11G31G29G28G18
  -7494900.812 6  -5197773.89145  23449724.609    23449717.414
        41.800          30.600
 -20677075.953 8 -16065725.14446  21020383.266    21020377.594
        48.800          40.500
 -21719606.805 8 -16017986.62746  21060377.563    21060369.957
        50.100          41.900
  -2793151.286 6  -3459373.65645  24063891.898    24063888.105
        36.200          31.700
 -20427377.946 7 -14724109.17646  21325593.359    21325584.348
        47.900          40.000
 -16282541.272 7 -12415886.60745  22588199.688    22588191.906
        43.000          31.900
   -593132.325 6  -4058210.02245  24215286.016    24215278.410
        39.900          32.900
 -18012757.808 8 -13785690.59747  20698254.914    20698246.488
        50.400          44.900
  -4736915.117 5                  24216053.438
        33.000
  -4900230.709 6  -6019041.24143  23827714.375    23827707.414
        36.600          20.600
 23  8  4 15 39 15.0000000  0 10G12G25G05G26G20G11G31G29G28G18
  -7438033.215 6  -5153461.57744  23460545.891    23460539.809
        40.600          29.300
 -20643216.695 8 -16039341.32646  21026826.688    21026820.723
        49.000          40.100
 -21741628.767 8 -16035146.60546  21056187.492    21056178.891
        50.100          41.800
  -2838427.122 5  -3494653.56545  24055274.938    24055273.195
        35.300          30.400
 -20413386.387 8 -14713206.69246  21328255.734    21328247.074
        48.600          39.100
 -16239199.944 7 -12382114.19945  22596446.398    22596440.316
        42.600          31.600
   -582003.612 6  -4049538.35045  24217404.563    24217396.664
        40.000          34.200
 -18031860.264 8 -13800575.63547  20694619.672    20694611.246
        50.800          45.000
  -4705127.604 5                  24222098.570
        31.000
  -4948496.158 6  -6056650.65043  23818528.977    23818522.016
        37.800          21.500
 23  8  4 15 39 30.0000000  0 10G12G25G05G26G20G11G31G29G28G18
  -7381120.365 6  -5109114.04444  23471375.844    23471369.703
        41.700          28.000
 -20609233.834 8 -16012861.20346  21033293.594    21033287.688
        49.000          40.500
 -21763500.462 8 -16052189.48147  21052025.203    21052017.188
        50.400          42.100
  -2883626.598 6  -3529873.93145  24046674.883    24046672.613
        36.700          31.800
 -20399254.428 8 -14702194.79846  21330944.781    21330936.648
        48.000          39.400
 -16195809.803 7 -12348303.75645  22604704.703    22604697.391
        43.100          33.500
   -570738.820 6  -4040760.61545  24219548.148    24219540.250
        39.400          35.000
 -18050876.289 8 -13815393.32147  20691001.586    20690992.750
        50.000          44.800
  -4673247.34815                  24228167.164
        34.200
  -4996719.415 6  -6094227.17143  23809351.328    23809345.012
        36.600          21.700
 23  8  4 15 39 45.0000000  0 10G12G25G05G26G20G11G31G29G28G18
  -7324164.089 6  -5064732.60944  23482213.961    23482208.289
        40.800          28.700
 -20575129.291 8 -15986286.26046  21039783.922    21039777.488
        49.300          40.500
 -21785223.303 8 -16069116.36846  21047891.961    21047883.887
        50.500          41.700
  -2928750.849 6  -3565035.69545  24038089.336    24038085.367
        38.400          32.300
 -20384983.603 8 -14691074.71246  21333660.586    21333651.926
        48.700          38.700
 -16152372.709 7 -12314456.71545  22612970.094    22612962.313
        43.000          33.400
   -559340.026 6  -4031878.49345  24221718.281    24221710.500
        40.900          35.600
 -18069807.386 8 -13830144.83147  20687398.781    20687390.355
        50.700          45.100
  -4641276.465 5                  24234251.391
        35.200
  -5044901.958 6  -6131771.97043  23800183.906    23800176.301
        38.000          21.700
 23  8  4 15 40  0.0000000  0 10G12G25G05G26G20G11G31G29G28G18
  -7267164.287 6  -5020317.26844  23493061.000    23493055.152
        41.000          29.000
 -20540902.948 8 -15959616.42346  21046296.625    21046290.367
        48.200          40.200
 -21806796.794 8 -16085926.87847  21043785.938    21043778.039
        49.300          42.000
  -2973799.230 6  -3600138.31545  24029517.563    24029513.125
        39.900          31.600
 -20370573.780 7 -14679846.30646  21336402.492    21336393.773
        47.500          39.600
 -16108888.457 7 -12280572.91345  22621245.180    22621237.340
        43.700          32.700
   -547806.869 6  -4022891.65345  24223911.750    24223905.316
        40.100          35.300
 -18088652.910 8 -13844829.65847  20683812.617    20683803.898
        50.200          45.100
  -4609214.746 5                  24240353.367
        34.600
  -5093043.159 6  -6169284.56244  23791023.805    23791016.492
        40.400          24.600
 23  8  4 15 40 15.0000000  0 10G12G25G05G26G20G11G31G29G28G18
  -7210120.844 6  -4975867.87244  23503916.234    23503910.445
        40.500          29.500
 -20506554.455 8 -15932851.41146  21052832.594    21052826.922
        48.800          40.300
 -21828220.338 8 -16102620.54747  21039709.914    21039701.781
        50.500          42.000
  -3018770.934 6  -3635181.18945  24020960.563    24020954.598
        39.900          32.100
 -20356024.576 8 -14668509.28846  21339171.813    21339162.742
        48.600          39.000
 -16065356.762 7 -12246652.15445  22629528.727    22629521.590
        43.400          31.800
   -536138.973 6  -4013799.76245  24226132.180    24226124.223
        40.300          33.400
 -18107412.264 8 -13859447.35247  20680243.242    20680234.465
        50.700          45.100
  -4577062.128 5                  24246471.172
        34.100
  -5141142.471 6  -6206764.51844  23781870.805    23781863.258
        40.400          24.700
 23  8  4 15 40 30.0000000  0 10G12G25G05G26G20G11G31G29G28G18
  -7153033.659 6  -4931384.38644  23514779.281    23514773.785
        41.300          29.700
 -20472083.901 8 -15905991.25746  21059392.281    21059386.434
        49.100          40.300
 -21849493.661 8 -16119197.16146  21035661.797    21035653.137
        49.500          41.800
  -3063665.389 6  -3670163.90645  24012416.273    24012411.660
        39.900          32.700
 -20341335.901 8 -14657063.59646  21341966.664    21341957.770
        49.300          39.500
 -16021777.662 7 -12212694.47245  22637821.359    22637814.574
        42.400          32.800
   -524336.399 6  -4004602.96845  24228376.578    24228369.559
        39.000          33.700
 -18126085.148 8 -13873997.65247  20676689.484    20676681.000
        50.000          44.900
  -4544818.719 5                  24252607.563
        33.300
  -5189199.488 6  -6244211.52044  23772724.977    23772718.133
        39.400          24.700
 23  8  4 15 40 45.0000000  0 10G12G25G05G26G20G11G31G29G28G18
  -7095903.106 6  -4886867.13844  23525651.070    23525645.633
        40.900          29.700
 -20437491.518 8 -15879036.18546  21065975.227    21065968.910
        49.400          40.500
 -21870616.127 8 -16135656.22147  21031642.125    21031633.934
        49.600          42.000
  -3108482.258 6  -3705086.16245  24003887.492    24003883.465
        40.700          34.300
 -20326508.034 8 -14645509.44046  21344788.242    21344779.816
        48.800          39.500
 -15978151.287 7 -12178699.95845  22646123.508    22646116.664
        42.600          32.700
   -512399.300 6  -3995301.35045  24230650.617    24230641.723
        41.200          34.900
 -18144671.194 8 -13888480.29047  20673152.859    20673144.141
        50.300          44.900
  -4512484.718 5                  24258758.656
        31.200
  -5237214.055 6  -6281625.43944  23763587.375    23763581.469
        39.200          25.500
 23  8  4 15 41  0.0000000  0 10G12G25G05G26G20G11G31G29G28G18
  -7038729.851 6  -4842316.59044  23536530.820    23536524.621
        40.600          28.300
 -20402777.855 8 -15851986.61846  21072580.898    21072575.109
        48.900          40.500
 -21891587.958 8 -16151997.91446  21027650.703    21027642.805
        49.700          41.800
  -3153221.443 6  -3739947.88845  23995373.297    23995370.383
        37.900          34.500
 -20311541.348 7 -14633847.11346  21347636.063    21347627.813
        47.900          40.000
 -15934478.183 7 -12144669.01245  22654434.398    22654427.320
        43.600          33.400
   -500327.987 6  -3985895.14745  24232947.406    24232939.273
        40.200          34.200
 -18163170.628 8 -13902895.44647  20669632.500    20669624.133
        50.100          45.000
  -4480060.965 5                  24264928.297
        32.500
  -5285186.372 6  -6319006.43044  23754458.852    23754452.242
        38.300          24.500
 23  8  4 15 41 15.0000000  0 10G12G25G05G26G20G11G31G29G28G18
  -6981513.366 6  -4797732.38744  23547419.594    23547413.453
        40.900          29.200
 -20367942.415 8 -15824842.15046  21079210.359    21079203.926
        49.200          40.400
 -21912408.507 8 -16168221.71046  21023689.023    21023680.598
        50.300          41.800
  -3197882.035 6  -3774748.31445  23986873.219    23986872.004
        37.100          33.900
 -20296435.005 8 -14622075.95946  21350510.766    21350502.516
        48.100          39.800
 -15890757.860 7 -12110601.25445  22662752.938    22662746.797
        42.300          32.000
   -488121.921 6  -3976383.94245  24235269.516    24235261.441
        40.100          33.100
 -18181582.542 8 -13917242.39647  20666128.641    20666120.332
        50.200          45.100
  -4447546.90715                  24271115.047
        30.800
  -5333115.467 6  -6356353.72244  23745337.219    23745331.254
        38.900          24.500
 23  8  4 15 41 30.0000000  0 10G12G25G05G26G20G11G31G29G28G18
  -6924254.439 6  -4753115.10544  23558315.820    23558309.152
        41.100          29.800
 -20332985.861 8 -15797603.31746  21085862.047    21085856.434
        48.700          40.000
 -21933077.888 8 -16184327.72447  21019755.875    21019747.742
        50.000          42.000
  -3242464.041 6  -3809487.53245  23978389.555    23978388.164
        36.900          34.000
 -20281189.623 8 -14610196.48046  21353412.133    21353403.355
        49.100          39.400
 -15846990.834 7 -12076497.14845  22671081.813    22671075.262
        42.800          33.000
   -475781.690 6  -3966768.21645  24237617.617    24237609.836
        38.700          32.400
 -18199907.281 8 -13931521.41547  20662641.898    20662633.238
        50.200          45.100
  -4414943.481 5                  24277319.039
        32.000
  -5381001.730 6  -6393667.66344  23736225.453    23736219.137
        40.200          25.000
 23  8  4 15 41 45.0000000  0 10G12G25G05G26G20G11G31G29G28G18
  -6866954.145 6  -4708465.61644  23569218.719    23569213.164
        41.300          28.700
 -20297909.262 8 -15770270.94246  21092536.781    21092531.168
        48.700          40.300
 -21953596.943 8 -16200316.59746  21015850.914    21015843.250
        49.900          41.800
  -3286967.903 6  -3844165.91845  23969921.992    23969918.668
        38.100          34.900
 -20265806.352 8 -14598209.52446  21356339.086    21356330.719
        48.500          39.200
 -15803178.259 7 -12042357.51045  22679420.719    22679412.820
        44.200          34.000
   -463308.277 6  -3957048.66245  24239989.727    24239983.586
        36.200          31.900
 -18218145.509 8 -13945733.03547  20659170.844    20659162.535
        50.300          45.100
  -4382251.627 5                  24283542.961
        32.800
  -5428845.763 6  -6430948.72544  23727121.727    23727114.883
        40.100          26.200
 23  8  4 15 42  0.0000000  0 10G12G25G05G26G20G11G31G29G28G18
  -6809612.808 6  -4663784.12444  23580131.289    23580125.031
        41.700          29.100
 -20262712.880 8 -15742845.21646  21099234.305    21099228.691
        48.800          40.100
 -21973965.144 8 -16216187.91647  21011975.648    21011967.223
        50.000          42.000
  -3331393.366 6  -3878783.17345  23961468.953    23961465.043
        38.800          35.900
 -20250285.278 8 -14586115.21446  21359293.078    21359284.242
        49.100          39.300
 -15759320.314 7 -12008182.53345  22687764.758    22687758.676
        42.800          33.800
   -450701.902 6  -3947225.54645  24242391.078    24242381.715
        37.900          32.700
 -18236297.161 8 -13959877.18047  20655717.391    20655708.613
        51.000          45.600
  -4349471.803 5                  24289781.305
        31.300
  -5476647.470 6  -6468196.78644  23718024.008    23718018.512
        38.800          25.300
 23  8  4 15 42 15.0000000  0 10G12G25G05G26G20G11G31G29G28G18
  -6752230.371 6  -4619070.58544  23591050.352    23591044.445
        41.200          29.800
 -20227396.731 8 -15715326.14646  21105954.906    21105948.941
        48.700          40.100
 -21994182.212 8 -16231941.47546  21008127.992    21008119.977
        49.800          41.800
  -3375739.897 6  -3913338.88845  23953030.539    23953026.395
        38.500          35.800
 -20234626.399 8 -14573913.51746  21362272.539    21362264.230
        48.400          39.500
 -15715416.927 7 -11973972.16245  22696120.234    22696113.566
        43.100          33.000
   -437962.580 6  -3937298.82545  24244814.984    24244806.852
        39.900          35.100
 -18254361.816 8 -13973953.53647  20652279.414    20652270.754
        49.800          44.900
  -4316603.951 5                  24296037.680
        30.800
  -5524406.521 6  -6505411.61844  23708936.789    23708930.414
        40.600          25.800
 23  8  4 15 42 30.0000000  0  9G12G25G05G26G20G11G31G29G18
  -6694805.111 6  -4574323.67144  23601976.656    23601971.809
        41.100          27.700
 -20191958.856 8 -15687712.24246  21112698.422    21112693.043
        49.000          39.300
 -22014245.530 8 -16247575.22547  21004309.938    21004302.039
        49.800          42.300
  -3420004.902 6  -3947831.09646  23944607.250    23944602.520
        39.900          36.500
 -20218827.711 8 -14561602.87246  21365278.906    21365270.539
        48.400          39.200
 -15671466.150 7 -11939724.86245  22704483.539    22704476.871
        42.300          31.900
   -425088.282 6  -3927266.96045  24247264.398    24247258.023
        38.700          35.900
 -18272337.018 8 -13987960.19847  20648858.695    20648850.152
        50.200          45.200
  -5572120.486 7  -6542591.30644  23699858.203    23699851.301
        42.400          26.400
 23  8  4 15 42 45.0000000  0  9G12G25G05G26G20G11G31G29G18
  -6637340.957 6  -4529546.46644  23612912.125    23612906.863
        40.000          27.300
 -20156403.212 8 -15660006.55546  21119464.773    21119458.691
        49.100          39.700
 -22034158.532 8 -16263091.85747  21000520.875    21000512.801
        48.800          42.200
  -3464191.771 6  -3982262.43746  23936199.625    23936194.012
        40.200          37.400
 -20202892.837 8 -14549186.11746  21368311.820    21368303.102
        48.900          39.400
 -15627471.893 7 -11905443.64845  22712856.563    22712848.840
        43.200          32.900
   -412082.618 6  -3917132.72045  24249739.563    24249732.484
        39.500          35.000
 -18290226.428 8 -14001900.01147  20645454.391    20645446.375
        49.800          45.100
  -5619792.916 6  -6579738.65744  23690785.313    23690778.820
        40.600          25.700
 23  8  4 15 43  0.0000000  0  9G12G25G05G26G20G11G31G29G18
  -6579836.408 6  -4484737.78744  23623855.844    23623849.527
        41.400          27.200
 -20120728.337 8 -15632207.97546  21126253.625    21126247.426
        49.100          39.100
 -22053919.624 8 -16278490.10047  20996760.633    20996753.027
        49.900          42.400
  -3508298.435 6  -4016631.25946  23927805.930    23927800.668
        39.700          36.100
 -20186820.208 8 -14536662.01246  21371370.125    21371361.523
        48.700          39.500
 -15583432.616 7 -11871127.37145  22721236.375    22721229.883
        43.000          33.600
   -398944.206 6  -3906894.98545  24252240.656    24252231.176
        40.900          34.700
 -18308028.080 8 -14015771.42747  20642067.109    20642058.391
        49.800          45.400
  -5667421.970 6  -6616852.18244  23681721.969    23681714.539
        41.000          25.600
 23  8  4 15 43 15.0000000  0  9G12G25G05G26G20G11G31G29G18
  -6522291.993 6  -4439898.04244  23634805.734    23634799.652
        41.700          27.600
 -20084934.550 8 -15604316.74246  21133064.711    21133059.039
        49.200          39.300
 -22073528.713 8 -16293769.90847  20993029.148    20993020.781
        49.900          42.200
  -3552324.625 6  -4050937.37745  23919427.367    23919422.402
        39.400          35.400
 -20170610.101 8 -14524030.78446  21374454.539    21374446.230
        48.500          39.300
 -15539348.555 7 -11836776.22745  22729624.648    22729618.801
        42.200          33.000
   -385673.231 6  -3896553.98345  24254765.180    24254757.926
        38.400          34.700
 -18325741.819 8 -14029574.34547  20638696.273    20638687.789
        50.200          45.200
  -5715007.589 7  -6653931.85744  23672667.648    23672660.102
        42.400          27.600
 23  8  4 15 43 30.0000000  0  9G12G25G05G26G20G11G31G29G18
  -6464707.571 7  -4395027.11344  23645764.961    23645757.766
        42.700          26.600
 -20049021.814 8 -15576332.82246  21139898.906    21139892.707
        48.900          39.800
 -22092985.253 8 -16308930.84647  20989326.227    20989318.152
        49.800          42.600
  -3596269.781 6  -4085180.33946  23911064.461    23911059.906
        39.000          36.100
 -20154262.396 8 -14511292.33046  21377565.438    21377556.953
        48.200          39.300
 -15495219.627 7 -11802390.11545  22738022.297    22738016.449
        42.300          31.800
   -372269.631 6  -3886109.63845  24257315.844    24257308.180
        38.100          32.900
 -18343367.242 8 -14043308.44547  20635341.945    20635334.105
        50.400          45.100
  -5762549.294 7  -6690977.30344  23663620.789    23663613.242
        42.200          26.500
 23  8  4 15 43 45.0000000  0  9G12G25G05G26G20G11G31G29G18
  -6407083.852 7  -4350125.56844  23656730.859    23656723.898
        42.500          27.100
 -20012990.816 8 -15548256.74746  21146755.328    21146749.656
        48.900          40.100
 -22112289.382 7 -16323973.01647  20985653.219    20985644.910
        47.600          42.300
  -3640133.885 6  -4119360.16645  23902716.781    23902713.105
        38.100          35.000
 -20137777.723 8 -14498447.15946  21380702.555    21380694.246
        49.500          39.000
 -15451046.548 7 -11767969.57845  22746429.023    22746421.359
        42.500          31.800
   -358733.952 6  -3875562.36545  24259890.688    24259882.789
        36.700          30.200
 -18360904.650 8 -14056973.96347  20632005.297    20631996.578
        48.400          45.600
  -5810047.448 6  -6727988.80944  23654581.234    23654574.156
        41.900          28.100
 23  8  4 15 44  0.0000000  0  9G12G25G05G26G20G11G31G29G18
  -6349420.594 6  -4305193.20144  23667702.563    23667696.891
        41.400          26.200
 -19976841.331 8 -15520088.34146  21153634.336    21153628.605
        49.300          40.300
 -22131440.328 8 -16338895.83247  20982008.742    20982000.551
        49.600          42.300
  -3683916.252 6  -4153476.30345  23894384.133    23894381.512
        37.300          35.000
 -20121155.659 8 -14485494.92846  21383865.602    21383857.410
        48.800          38.800
 -15406829.023 7 -11733514.41745  22754843.070    22754835.816
        42.000          32.100
   -345065.825 6  -3864911.92945  24262492.688    24262484.262
        36.800          30.900
 -18378353.351 8 -14070570.35047  20628684.516    20628676.031
        50.300          45.500
  -5857501.314 7  -6764965.83944  23645550.875    23645543.914
        42.800          28.700
 23  8  4 15 44 15.0000000  0  9G12G25G05G26G20G11G31G29G18
  -6291718.089 6  -4260230.25544  23678683.203    23678676.652
        41.400          25.800
 -19940573.543 8 -15491827.75946  21160536.039    21160529.781
        49.400          39.800
 -22150437.964 8 -16353699.18247  20978393.773    20978384.938
        50.000          42.300
  -3727616.449 5  -4187528.43145  23886068.148    23886066.348
        35.900          34.200
 -20104396.196 8 -14472435.63246  21387054.891    21387046.465
        48.800          38.800
 -15362567.165 6 -11699024.69345  22763265.656    22763258.930
        41.800          32.000
   -331265.474 6  -3854158.45345  24265118.438    24265111.594
        37.500          33.800
 -18395713.085 8 -14084097.41647  20625381.234    20625372.516
        50.500          45.300
  -5904910.767 6  -6801908.27544  23636529.891    23636523.047
        41.800          27.800
 23  8  4 15 44 30.0000000  0  9G12G25G05G26G20G11G31G29G18
  -6233976.643 6  -4215236.95444  23689670.500    23689664.711
        40.400          26.200
 -19904187.710 8 -15463475.18646  21167460.172    21167453.855
        49.800          39.200
 -22169282.323 8 -16368383.10847  20974807.422    20974799.348
        49.100          42.000
  -3771234.108 6  -4221516.21745  23877768.391    23877765.418
        36.400          33.800
 -20087499.601 8 -14459269.47546  21390270.211    21390261.551
        48.900          39.400
 -15318261.120 6 -11664500.57345  22771695.641    22771690.379
        39.600          30.500
   -317332.987 6  -3843301.95945  24267770.313    24267762.531
        39.700          34.900
 -18412983.864 8 -14097555.17447  20622094.523    20622086.215
        50.000          45.500
  -5952275.609 6  -6838815.92744  23627515.227    23627510.086
        40.400          27.600
 23  8  4 15 44 45.0000000  0 10G12G25G05G26G20G11G31G29G28G18
  -6176197.852 6  -4170214.58744  23700665.992    23700659.734
        39.700          26.500
 -19867685.449 8 -15435031.89046  21174406.078    21174400.348
        49.000          39.200
 -22187974.592 8 -16382948.51047  20971250.867    20971242.441
        48.000          42.200
  -3814770.161 6  -4255440.40945  23869486.164    23869481.375
        39.600          34.700
 -20070467.524 8 -14445997.75246  21393511.781    21393503.180
        48.900          39.600
 -15273912.543 7 -11629943.29945  22780136.508    22780129.605
        42.300          31.200
   -303269.956 6  -3832343.75845  24270446.289    24270437.863
        38.700          34.800
 -18430166.896 8 -14110944.55847  20618824.797    20618816.313
        48.300          45.800
   -123120.34115                  24359488.391
        31.200
  -5999597.134 6  -6875689.84044  23618511.461    23618504.500
        40.500          26.000
 23  8  4 15 45  0.0000000  0 10G12G25G05G26G20G11G31G29G28G18
  -6118383.653 6  -4125164.61844  23711667.242    23711661.805
        40.200          26.200
 -19831068.519 8 -15406499.24646  21181373.977    21181368.129
        48.600          39.600
 -22206515.890 7 -16397396.27147  20967722.586    20967713.984
        47.900          42.300
  -3858226.028 6  -4289302.12345  23861216.672    23861211.410
        38.300          34.800
 -20053301.544 8 -14432621.68746  21396777.984    21396769.148
        48.900          39.900
 -15229523.097 6 -11595354.16145  22788582.438    22788576.766
        41.200          31.200
   -289078.010 6  -3821285.11545  24273145.305    24273138.168
        38.600          35.400
 -18447263.371 8 -14124266.49947  20615571.570    20615563.027
        48.500          45.300
    -89308.348 5                  24365923.461
        31.900
  -6046876.651 6  -6912531.01544  23609514.523    23609507.328
        40.600          25.500
 23  8  4 15 45 15.0000000  0 10G12G25G05G26G20G11G31G29G28G18
  -6060529.448 6  -4080083.45544  23722677.914    23722671.129
        41.300          28.100
 -19794332.403 8 -15377873.73346  21188364.625    21188358.719
        48.700          39.100
 -22224901.139 8 -16411722.43647  20964223.367    20964215.293
        49.600          42.100
  -3901596.564 6  -4323097.35145  23852962.328    23852958.301
        37.600          34.700
 -20035997.049 8 -14419137.68046  21400071.031    21400062.078
        49.600          39.200
 -15185088.183 6 -11560729.60444  22797039.586    22797032.156
        41.400          29.600
   -274752.682 6  -3810122.53246  24275874.164    24275864.918
        40.200          37.200
 -18464268.413 8 -14137517.19247  20612335.516    20612327.207
        50.200          45.300
    -55409.938 5                  24372374.891
        31.500
  -6094109.257 6  -6949335.62544  23600525.992    23600519.266
        40.400          25.800
 23  8  4 15 45 30.0000000  0 10G12G25G05G26G20G11G31G29G28G18
  -6002637.760 6  -4034973.07144  23733694.773    23733687.637
        41.300          27.500
 -19757479.589 8 -15349157.28046  21195377.367    21195371.813
        49.000          39.500
 -22243132.909 8 -16425929.01347  20960754.133    20960745.941
        49.200          42.200
  -3944883.532 6  -4356827.48045  23844726.523    23844721.145
        39.500          35.500
 -20018556.324 8 -14405547.52946  21403389.773    21403381.582
        49.200          39.200
 -15140610.271 6 -11526071.52844  22805502.602    22805495.113
        40.800          29.400
   -260296.273 6  -3798857.79946  24278625.156    24278616.613
        39.000          36.000
 -18481184.149 8 -14150698.28547  20609116.898    20609107.945
        50.500          45.400
    -21427.877 5                  24378840.797
        30.800
  -6141297.039 6  -6986105.28444  23591546.211    23591539.074
        40.400          26.400
 23  8  4 15 45 45.0000000  0 10G12G25G05G26G20G11G31G29G28G18
  -5944707.645 6  -3989832.74444  23744717.648    23744710.805
        40.500          26.800
 -19720509.157 8 -15320349.16946  21202412.531    21202406.449
        48.400          39.000
 -22261209.370 8 -16440014.56247  20957314.750    20957306.324
        50.200          42.500
  -3988085.487 6  -4390491.33346  23836504.570    23836500.719
        38.400          36.100
 -20000978.405 8 -14391850.47246  21406734.789    21406725.777
        49.500          39.100
 -15096088.319 6 -11491379.19045  22813974.492    22813968.469
        40.900          30.000
   -245707.824 6  -3787490.20945  24281398.695    24281392.203
        37.300          34.400
 -18498009.200 8 -14163808.71747  20605914.719    20605906.352
        49.900          45.400
     12638.689 4                  24385320.688
        25.300
  -6188438.642 6  -7022838.98844  23582575.938    23582569.387
        41.000          27.600
 23  8  4 15 46  0.0000000  0  9G12G25G05G26G20G11G31G29G18
  -5886742.845 6  -3944665.41144  23755747.758    23755741.383
        40.200          27.800
 -19683424.833 8 -15291452.31846  21209469.461    21209463.672
        48.800          39.700
 -22279133.899 8 -16453981.72847  20953903.898    20953895.531
        49.400          42.300
  -4031205.557 6  -4424091.37246  23828299.547    23828294.582
        39.300          36.000
 -19983266.924 8 -14378049.33746  21410104.914    21410096.781
        48.700          38.900
 -15051526.107 7 -11456655.44645  22822455.953    22822448.465
        42.800          30.900
   -230990.854 6  -3776022.47545  24284201.008    24284192.758
        38.600          34.800
 -18514746.863 8 -14176851.04947  20602729.383    20602721.250
        49.900          45.200
  -6235537.464 6  -7059539.34144  23573613.352    23573606.273
        40.500          27.000
 23  8  4 15 46 15.0000000  0  9G12G25G05G26G20G11G31G29G18
  -5828741.726 6  -3899469.81244  23766784.820    23766778.680
        40.400          27.500
 -19646224.819 8 -15262465.32546  21216548.484    21216542.637
        48.800          39.300
 -22296904.266 8 -16467828.76647  20950522.023    20950513.480
        49.500          42.000
  -4074241.344 6  -4457625.74645  23820110.008    23820105.395
        38.800          35.900
 -19965419.957 8 -14364142.62846  21413501.039    21413492.555
        49.000          39.400
 -15006921.678 6 -11421898.78845  22830942.984    22830936.551
        40.600          30.000
   -216143.512 6  -3764453.14445  24287024.188    24287018.398
        36.800          33.500
 -18531394.980 8 -14189823.60747  20599561.422    20599553.230
        50.000          45.500
  -6282591.187 6  -7096204.57044  23564659.734    23564652.305
        40.600          27.800
 23  8  4 15 46 30.0000000  0  9G12G25G05G26G20G11G31G29G18
  -5770703.568 6  -3854245.32744  23777828.805    23777822.898
        40.700          27.900
 -19608908.375 8 -15233387.60046  21223649.578    21223643.613
        49.600          39.100
 -22314519.473 8 -16481554.89947  20947169.852    20947161.660
        49.500          42.300
  -4117191.514 6  -4491093.41445  23811936.375    23811931.996
        38.700          35.500
 -19947436.608 8 -14350129.65046  21416923.773    21416915.113
        48.800          39.500
 -14962274.218 6 -11387108.61244  22839437.695    22839431.965
        40.200          29.900
   -201165.075 5  -3752781.66245  24289874.445    24289868.422
        35.700          32.700
 -18547952.383 8 -14202725.47847  20596410.945    20596402.344
        50.000          45.600
  -6329598.746 6  -7132833.83144  23555713.773    23555706.930
        39.700          27.100
 23  8  4 15 46 45.0000000  0  9G12G25G05G26G20G11G31G29G18
  -5712629.656 6  -3808992.98144  23788880.000    23788874.680
        40.300          28.300
 -19571476.763 8 -15204220.14646  21230772.633    21230766.785
        48.800          38.800
 -22331980.339 7 -16495160.77647  20943847.742    20943839.141
        47.900          42.600
  -4160056.750 6  -4524494.89745  23803778.188    23803775.332
        38.100          35.400
 -19929318.125 8 -14336011.37846  21420370.820    21420362.688
        48.100          38.300
 -14917585.011 6 -11352285.89145  22847943.805    22847935.730
        41.600          30.200
   -186056.946 6  -3741009.09945  24292749.797    24292743.012
        37.100          34.200
 -18564419.879 8 -14215557.30147  20593277.344    20593268.742
        48.300          45.400
  -6376561.020 6  -7169427.80144  23546777.039    23546770.313
        39.900          26.800
 23  8  4 15 47  0.0000000  0  9G12G25G05G26G20G11G31G29G18
  -5654520.365 6  -3763713.06644  23799936.852    23799932.297
        40.100          28.300
 -19533930.398 8 -15174963.26746  21237917.156    21237912.016
        48.900          39.200
 -22349286.917 7 -16508646.42047  20940553.891    20940546.344
        47.500          42.400
  -4202836.861 6  -4557830.05645  23795639.156    23795634.719
        38.300          35.000
 -19911064.779 8 -14321788.01346  21423844.516    21423836.441
        48.900          38.500
 -14872854.309 6 -11317430.85145  22856455.180    22856448.805
        41.400          30.800
   -170819.017 6  -3729135.41345  24295650.383    24295642.953
        39.000          34.400
 -18580797.430 8 -14228319.02347  20590160.695    20590152.328
        48.400          45.500
  -6423477.930 6  -7205986.40144  23537849.961    23537841.945
        39.400          25.600
 23  8  4 15 47 15.0000000  0  9G12G25G05G26G20G11G31G29G18
  -5596376.339 6  -3718406.08044  23811000.828    23810996.332
        38.600          27.900
 -19496269.771 8 -15145617.35346  21245084.234    21245078.680
        48.700          39.500
 -22366438.710 8 -16522011.46147  20937290.242    20937281.992
        50.000          42.300
  -4245531.789 6  -4591098.80545  23787512.750    23787509.602
        36.800          33.300
 -19892676.933 8 -14307459.83546  21427344.125    21427335.230
        48.800          38.500
 -14828082.630 6 -11282543.88045  22864975.289    22864968.738
        41.400          31.800
   -155452.022 6  -3717161.17645  24298575.602    24298567.938
        39.800          35.500
 -18597085.095 8 -14241010.71847  20587061.305    20587052.996
        49.900          45.500
  -6470349.587 6  -7242509.74644  23528929.516    23528922.320
        39.600          26.000
 23  8  4 15 47 30.0000000  0  9G12G25G05G26G20G11G31G29G18
  -5538197.771 6  -3673072.19444  23822073.258    23822067.645
        40.100          28.100
 -19458495.077 8 -15116182.56646  21252272.297    21252267.035
        49.300          39.800
 -22383435.995 8 -16535256.09947  20934055.570    20934047.672
        49.700          42.500
  -4288141.126 6  -4624300.85745  23779405.078    23779401.461
        36.100          33.500
 -19874154.811 8 -14293027.03446  21430869.141    21430860.129
        50.000          38.800
 -14783270.037 6 -11247625.04945  22873502.805    22873496.313
        41.600          30.400
   -139955.937 6  -3705086.30046  24301523.977    24301515.961
        40.800          36.300
 -18613282.724 8 -14253632.24247  20583979.031    20583970.840
        50.200          45.700
  -6517175.904 6  -7278997.71944  23520019.797    23520011.781
        38.700          26.700
 23  8  4 15 47 45.0000000  0  9G12G25G05G26G20G11G31G29G18
  -5479984.597 6  -3627711.33044  23833151.375    23833145.176
        40.600          27.800
 -19420606.340 8 -15086658.89546  21259482.383    21259476.359
        48.600          38.900
 -22400278.232 8 -16548379.91947  20930850.461    20930842.152
        49.500          42.200
  -4330664.217 5  -4657435.73245  23771312.508    23771309.594
        35.800          32.400
 -19855498.191 8 -14278489.41646  21434419.133    21434410.414
        49.300          38.700
 -14738416.459 6 -11212674.26244  22882038.570    22882030.613
        41.700          29.600
   -124330.761 6  -3692910.82145  24304496.750    24304489.320
        39.100          35.400
 -18629389.809 8 -14266183.22347  20580914.156    20580905.379
        50.200          45.800
  -6563956.332 6  -7315449.98344  23511116.602    23511109.875
        37.900          26.000
 23  8  4 15 48  0.0000000  0  9G12G25G05G26G20G11G31G29G18
  -5421737.037 6  -3582323.70044  23844236.711    23844230.102
        40.800          28.700
 -19382603.737 8 -15057046.50946  21266713.969    21266707.887
        48.400          38.800
 -22416965.284 8 -16561382.82147  20927675.016    20927667.176
        48.800          42.900
  -4373100.790 6  -4690503.13845  23763238.852    23763234.648
        36.100          31.900
 -19836707.280 8 -14263847.16846  21437994.438    21437986.246
        48.300          38.800
 -14693522.078 6 -11177691.66044  22890580.867    22890574.082
        41.600          29.900
   -108576.541 6  -3680634.85446  24307495.375    24307487.711
        39.400          36.500
 -18645406.104 8 -14278663.46547  20577866.352    20577857.750
        49.400          45.800
  -6610690.721 6  -7351866.38744  23502222.523    23502216.383
        38.700          26.400
 23  8  4 15 48 15.0000000  0  9G12G25G05G26G20G11G31G29G18
  -5363456.087 6  -3536910.04644  23855326.797    23855320.246
        39.600          27.700
 -19344488.271 8 -15027346.16246  21273967.508    21273961.602
        49.200          39.000
 -22433497.926 7 -16574265.40247  20924528.844    20924521.121
        47.600          42.800
  -4415451.137 6  -4723503.38745  23755179.672    23755175.938
        37.500          33.100
 -19817782.877 8 -14249100.90546  21441595.844    21441587.359
        48.700          38.400
 -14648587.790 7 -11142677.97945  22899132.969    22899125.539
        42.600          30.200
    -92694.316 6  -3668259.09845  24310517.180    24310510.219
        38.800          35.600
 -18661332.445 8 -14291073.59747  20574835.367    20574826.824
        48.800          46.100
  -6657379.655 6  -7388247.33944  23493338.398    23493332.316
        38.800          26.400
 23  8  4 15 48 30.0000000  0  9G12G25G05G26G20G11G31G29G18
  -5305141.718 6  -3491470.36244  23866423.258    23866416.707
        39.600          26.500
 -19306260.066 8 -14997557.99546  21281242.125    21281236.570
        48.900          39.000
 -22449875.340 8 -16587027.02847  20921413.234    20921404.516
        48.100          42.500
  -4457714.787 6  -4756436.10645  23747137.523    23747133.027
        37.500          33.100
 -19798724.980 8 -14234250.61546  21445222.523    21445213.805
        48.900          38.300
 -14603613.631 7 -11107633.21645  22907690.516    22907683.555
        42.500          31.200
    -76683.985 6  -3655783.54945  24313563.523    24313556.855
        38.100          34.900
 -18677168.371 8 -14303413.28947  20571822.023    20571813.539
        48.500          45.700
  -6704022.858 6  -7424592.67044  23484463.281    23484456.672
        38.400          27.800
 23  8  4 15 48 45.0000000  0  9G12G25G05G26G20G11G31G29G18
  -5246793.684 6  -3446004.45544  23877526.539    23877520.809
        39.000          26.400
 -19267918.556 8 -14967681.51846  21288537.922    21288532.074
        48.300          38.100
 -22466096.695 8 -16599667.05047  20918325.641    20918317.684
        48.800          42.500
  -4499890.593 6  -4789300.38745  23739111.633    23739106.551
        37.500          30.200
 -19779532.931 8 -14219295.79746  21448874.352    21448865.809
        49.100          38.900
 -14558598.912 6 -11072556.86745  22916255.484    22916249.520
        41.200          30.400
    -60545.029 6  -3643207.78146  24316634.883    24316627.746
        38.600          36.100
 -18692912.738 8 -14315681.62947  20568825.859    20568817.375
        48.600          45.600
  -6750619.307 6  -7460901.56244  23475595.938    23475589.445
        37.900          25.500
 23  8  4 15 49  0.0000000  0  9G12G25G05G26G20G11G31G29G18
  -5188412.398 6  -3400512.61644  23888636.133    23888629.992
        38.400          26.300
 -19229464.125 8 -14937717.04946  21295855.719    21295849.695
        49.200          38.800
 -22482162.286 8 -16612185.69047  20915268.398    20915260.383
        48.700          42.300
  -4541978.420 6  -4822096.08845  23731101.188    23731097.043
        37.100          30.200
 -19760207.052 8 -14204236.67846  21452552.117    21452543.750
        49.100          39.000
 -14513544.043 6 -11037449.24745  22924830.430    22924823.293
        41.400          30.700
    -44277.730 6  -3630532.01646  24319730.336    24319723.492
        38.300          36.400
 -18708565.696 8 -14327878.74147  20565847.086    20565838.777
        50.100          46.000
  -6797169.082 6  -7497174.08344  23466738.930    23466730.855
        38.700          27.200
 23  8  4 15 49 15.0000000  0  9G12G25G05G26G20G11G31G29G18
  -5129998.482 6  -3354995.35144  23899750.797    23899746.477
        37.900          26.800
 -19190897.429 8 -14907665.11746  21303194.484    21303188.930
        48.400          38.600
 -22498072.217 8 -16624583.04247  20912240.883    20912232.926
        49.200          43.100
  -4583978.149 6  -4854823.17945  23723107.906    23723104.875
        37.200          31.200
 -19740747.950 8 -14189073.76746  21456255.000    21456246.750
        49.100          39.200
 -14468449.564 7 -11002310.73544  22933411.328    22933404.719
        42.100          29.900
    -27882.564 6  -3617756.58145  24322851.328    24322842.785
        39.700          35.300
 -18724127.510 8 -14340004.83547  20562885.977    20562877.141
        50.400          45.700
  -6843672.258 6  -7533410.30544  23457888.148    23457881.598
        37.700          26.900
 23  8  4 15 49 30.0000000  0  9G12G25G05G26G20G11G31G29G18
  -5071551.982 6  -3309452.68044  23910873.781    23910867.992
        38.300          25.800
 -19152218.424 8 -14877525.67146  21310554.953    21310549.340
        48.300          38.700
 -22513825.836 8 -16636858.59147  20909242.844    20909235.063
        49.700          42.500
  -4625889.383 6  -4887481.28345  23715133.930    23715130.254
        36.900          32.000
 -19721155.457 8 -14173806.90146  21459983.688    21459974.852
        49.500          39.300
 -14423315.374 7 -10967141.26444  22942000.203    22941992.949
        42.000          29.900
    -11359.578 6  -3604881.53145  24325994.227    24325986.680
        38.400          34.500
 -18739597.598 8 -14352059.45547  20559942.383    20559933.957
        50.500          45.900
  -6890128.506 6  -7569609.98944  23449047.875    23449040.914
        38.100          25.900
 23  8  4 15 49 45.0000000  0  9G12G25G05G26G20G11G31G29G18
  -5013073.589 6  -3263885.17844  23922001.875    23921995.910
        37.800          24.400
 -19113427.883 8 -14847299.31246  21317936.664    21317930.875
        48.600          38.700
 -22529423.528 8 -16649012.64547  20906275.469    20906266.691
        48.900          42.600
  -4667712.158 6  -4920070.40745  23707175.680    23707172.355
        37.600          32.300
 -19701430.206 8 -14158436.59146  21463737.172    21463728.512
        49.400          38.500
 -14378142.129 6 -10931941.37245  22950596.438    22950589.652
        40.900          30.700
      5290.651 6  -3591907.37646  24329162.789    24329155.887
        38.700          36.000
 -18754976.520 8 -14364043.04047  20557015.602    20557007.234
        50.300          45.800
  -6936538.178 6  -7605773.33044  23440216.656    23440209.461
        38.000          25.700
 23  8  4 15 50  0.0000000  0  9G12G25G05G26G20G11G31G29G18
  -4954563.995 6  -3218293.33144  23933136.609    23933130.117
        39.300          26.800
 -19074526.466 8 -14816986.53746  21325339.227    21325333.613
        48.700          39.200
 -22544865.769 8 -16661045.56147  20903336.352    20903328.629
        50.100          42.600
  -4709446.502 6  -4952590.66645  23699234.586    23699230.617
        39.600          32.600
 -19681572.773 8 -14142963.28346  21467515.859    21467506.965
        48.800          39.100
 -14332930.424 6 -10896711.53945  22959200.164    22959193.613
        41.500          31.500
     22067.518 6  -3578834.50446  24332356.633    24332349.086
        41.200          37.000
 -18770264.199 8 -14375955.51847  20554106.109    20554098.328
        50.200          45.800
  -6982901.453 6  -7641900.54144  23431394.242    23431387.223
        38.400          26.800
 23  8  4 15 50 15.0000000  0  9G12G25G05G26G20G11G31G29G18
  -4896023.150 6  -3172677.17844  23944276.906    23944270.531
        39.200          25.500
 -19035514.098 8 -14786587.32746  21332763.391    21332757.777
        48.300          38.600
 -22560151.915 8 -16672956.85047  20900427.852    20900419.309
        50.100          42.900
  -4751091.798 6  -4985041.57245  23691309.664    23691304.992
        39.400          33.000
 -19661582.945 8 -14127386.81046  21471319.547    21471311.355
        48.600          38.700
 -14287680.086 6 -10861451.62445  22967810.289    22967804.969
        40.900          30.800
     38971.130 6  -3565662.87445  24335572.414    24335564.516
        40.100          34.900
 -18785460.083 8 -14387796.47947  20551214.398    20551206.617
        51.000          45.900
  -7029217.935 6  -7677991.26244  23422579.922    23422573.371
        38.700          26.500
 23  8  4 15 50 30.0000000  0 10G12G25G05G26G20G11G31G29G28G18
  -4837450.583 6  -3127036.30144  23955422.203    23955416.766
        39.400          26.700
 -18996390.305 8 -14756101.28546  21340208.156    21340202.484
        48.000          38.800
 -22575280.734 8 -16684745.55747  20897548.453    20897540.379
        49.300          43.500
  -4792646.985 6  -5017422.21645  23683400.602    23683397.805
        39.000          33.800
 -19641460.152 8 -14111706.72646  21475149.180    21475140.461
        49.100          38.700
 -14242390.572 6 -10826161.16645  22976428.992    22976422.676
        41.700          30.900
     56002.017 6  -3552392.08245  24338813.164    24338805.324
        40.600          35.900
 -18800563.437 8 -14399565.33047  20548340.688    20548332.027
        50.800          45.900
     84507.92415                  24511406.805
        30.100
  -7075486.706 6  -7714044.85044  23413776.195    23413768.648
        39.300          27.900
 23  8  4 15 50 45.0000000  0 10G12G25G05G26G20G11G31G29G28G18
  -4778849.696 6  -3081373.33244  23966572.164    23966568.020
        38.800          25.100
 -18957158.617 8 -14725531.17346  21347674.008    21347668.102
        48.800          38.600
 -22590255.763 8 -16696414.41347  20894698.773    20894691.051
        50.100          42.700
  -4834114.875 6  -5049734.86145  23675509.422    23675505.922
        39.400          33.300
 -19621207.934 8 -14095925.78446  21479003.156    21478994.613
        49.300          38.600
 -14197065.360 7 -10790842.82945  22985054.789    22985046.832
        42.000          30.200
     73156.713 6  -3539024.79246  24342078.414    24342071.043
        41.700          37.900
 -18815577.380 8 -14411264.51847  20545483.891    20545475.406
        49.900          46.100
    120157.61715                  24518189.383
        30.700
  -7121710.871 6  -7750063.64544  23404980.164    23404972.793
        39.900          26.800
 23  8  4 15 51  0.0000000  0 10G12G25G05G26G20G11G31G29G28G18
  -4720213.691 6  -3035683.00144  23977731.422    23977725.867
        38.700          25.500
 -18917812.168 8 -14694871.63046  21355160.875    21355155.672
        48.800          38.900
 -22605069.699 8 -16707957.74847  20891879.852    20891872.246
        49.100          42.900
  -4875488.191 6  -5081973.80945  23667636.047    23667632.313
        38.800          32.500
 -19600819.285 8 -14080038.55646  21482883.242    21482874.406
        48.900          39.000
 -14151697.502 6 -10755491.29145  22993686.711    22993680.863
        40.400          30.000
     90442.222 6  -3525555.57446  24345367.492    24345359.652
        40.900          36.600
 -18830494.699 8 -14422888.41647  20542645.000    20542636.457
        51.100          45.900
    155887.17014                  24524986.953
        29.900
  -7167883.146 6  -7786042.01844  23396193.273    23396186.957
        39.900          28.600
 23  8  4 15 51 15.0000000  0  9G12G25G05G26G20G11G31G29G18
  -4661549.176 6  -2989970.43743  23988895.547    23988888.938
        40.200          22.300
 -18878357.517 8 -14664127.77846  21362669.773    21362663.691
        48.900          38.500
 -22619728.504 8 -16719380.19347  20889090.570    20889082.555
        50.700          42.700
  -4916772.755 6  -5114143.57345  23659780.852    23659776.707
        39.800          33.300
 -19580300.643 8 -14064050.01946  21486787.313    21486779.180
        49.100          38.500
 -14106293.298 6 -10720111.49245  23002326.945    23002321.332
        40.900          30.200
    107852.089 6  -3511989.44745  24348679.117    24348672.684
        38.600          35.500
 -18845321.358 8 -14434441.66147  20539823.750    20539815.324
        51.000          46.000
  -7214009.653 6  -7821984.71844  23387415.492    23387409.293
        40.100          28.500
 23  8  4 15 51 30.0000000  0  9G12G25G05G26G20G11G31G29G18
  -4602855.246 6  -2944234.95744  24000064.477    24000058.629
        40.200          25.800
 -18838793.575 8 -14633298.76946  21370197.984    21370192.723
        48.400          38.500
 -22634230.733 8 -16730680.64047  20886331.203    20886322.543
        49.900          42.500
  -4957966.914 6  -5146242.95445  23651942.164    23651937.258
        41.100          33.800
 -19559650.846 8 -14047959.27846  21490716.813    21490708.680
        48.400          38.500
 -14060851.824 7 -10684702.61445  23010974.875    23010968.734
        42.900          31.000
    125387.293 6  -3498325.67745  24352016.750    24352009.613
        38.400          34.700
 -18860056.200 8 -14445923.36647  20537019.898    20537011.238
        50.300          46.000
  -7260088.873 6  -7857890.61244  23378646.992    23378640.441
        40.000          26.800
 23  8  4 15 51 45.0000000  0  9G12G25G05G26G20G11G31G29G18
  -4544132.185 6  -2898476.77944  24011238.875    24011232.910
        39.000          25.900
 -18799120.831 8 -14602384.97746  21377747.359    21377741.395
        48.500          38.200
 -22648576.323 8 -16741859.03147  20883600.984    20883592.793
        49.200          42.600
  -4999070.569 6  -5178271.78945  23644121.344    23644115.145
        41.700          33.600
 -19538870.267 8 -14031766.64446  21494671.680    21494663.078
        49.500          38.500
 -14015373.347 7 -10649264.87045  23019630.203    23019622.656
        43.000          30.300
    143047.545 6  -3484564.46445  24355378.508    24355370.609
        40.000          35.900
 -18874698.841 8 -14457333.23347  20534233.320    20534224.836
        50.800          46.100
  -7306120.974 6  -7893759.75544  23369887.234    23369880.918
        40.200          26.500
 23  8  4 15 52  0.0000000  0  9G12G25G05G26G20G11G31G29G18
  -4485379.428 6  -2852695.48044  24022419.930    24022412.969
        39.900          24.200
 -18759338.813 8 -14571386.03646  21385317.984    21385312.371
        48.600          38.100
 -22662764.676 8 -16752914.89047  20880900.922    20880893.141
        48.900          43.000
  -5040082.637 6  -5210229.24945  23636316.055    23636311.266
        40.900          33.800
 -19517958.347 8 -14015471.65846  21498650.695    21498642.855
        48.800          38.300
 -13969857.320 6 -10613797.91144  23028289.516    23028284.551
        39.900          29.500
    160833.407 6  -3470705.36046  24358761.734    24358754.363
        39.900          36.200
 -18889248.443 8 -14468670.58847  20531464.625    20531456.023
        50.400          46.100
  -7352104.978 6  -7929591.43644  23361137.109    23361129.855
        39.600          26.600
 23  8  4 15 52 15.0000000  0  9G12G25G05G26G20G11G31G29G18
  -4426597.284 6  -2806891.29244  24033605.461    24033599.027
        40.300          27.200
 -18719447.537 8 -14540301.95946  21392908.898    21392903.168
        48.200          37.500
 -22676795.012 8 -16763847.62947  20878230.969    20878222.895
        49.000          42.600
  -5081002.544 6  -5242114.88645  23628530.031    23628524.535
        40.500          34.100
 -19496915.131 8 -13999074.36146  21502655.016    21502646.414
        48.800          38.900
 -13924303.663 6 -10578301.63644  23036958.633    23036952.844
        40.900          28.800
    178744.891 6  -3456748.41345  24362170.391    24362162.961
        38.900          35.500
 -18903704.595 8 -14479935.11547  20528713.703    20528705.453
        50.200          46.100
  -7398040.527 6  -7965385.38044  23352395.328    23352388.484
        40.100          26.900
 23  8  4 15 52 30.0000000  0  9G12G25G05G26G20G11G31G29G18
  -4367786.780 6  -2761065.00344  24044797.086    24044791.063
        40.800          27.100
 -18679447.976 8 -14509133.50946  21400520.414    21400514.859
        48.100          38.000
 -22690668.601 7 -16774658.22547  20875591.063    20875582.637
        47.600          42.900
  -5121830.658 6  -5273928.96645  23620757.531    23620755.086
        37.400          33.100
 -19475741.265 8 -13982575.25746  21506684.578    21506675.742
        48.600          38.900
 -13878713.279 6 -10542776.69544  23045635.445    23045628.426
        41.600          29.100
    196781.051 6  -3442694.30445  24365602.688    24365595.961
        39.900          35.900
 -18918067.926 8 -14491127.32047  20525980.445    20525972.137
        48.400          46.100
  -7443928.151 6  -8001141.96244  23343663.945    23343656.398
        40.500          26.200
 23  8  4 15 52 45.0000000  0  9G12G25G05G26G20G11G31G29G18
  -4308947.997 6  -2715216.72444  24055993.719    24055987.871
        39.800          25.500
 -18639340.330 7 -14477880.83746  21408153.023    21408146.824
        47.800          37.500
 -22704384.709 8 -16785346.10447  20872981.438    20872973.070
        48.400          43.100
  -5162566.543 6  -5305671.20345  23613006.711    23613003.855
        38.400          35.700
 -19454436.921 8 -13965974.47846  21510738.289    21510729.863
        48.800          38.100
 -13833086.291 6 -10507223.24444  23054316.891    23054310.867
        40.500          29.200
    214941.748 6  -3428543.10346  24369059.188    24369051.816
        40.600          36.800
 -18932338.154 8 -14502246.98047  20523265.070    20523256.527
        48.800          46.400
  -7489767.682 6  -8036861.06144  23334939.680    23334933.715
        40.000          27.000
 23  8  4 15 53  0.0000000  0  9G12G25G05G26G20G11G31G29G18
  -4250081.158 6  -2669346.54544  24067196.328    24067189.426
        39.900          25.500
 -18599124.914 8 -14446544.18146  21415805.758    21415799.852
        48.500          38.100
 -22717943.530 8 -16795911.42447  20870400.938    20870392.688
        49.800          43.300
  -5203209.955 6  -5337341.38645  23605273.320    23605269.996
        38.900          35.100
 -19433002.353 8 -13949272.23446  21514817.086    21514808.953
        48.700          38.100
 -13787422.822 6 -10471641.39744  23063007.141    23063000.297
        41.300          29.900
    233226.875 6  -3414294.96045  24372537.445    24372530.719
        39.900          35.800
 -18946515.107 8 -14513293.94847  20520566.680    20520559.016
        49.800          46.400
  -7535558.986 6  -8072542.59344  23326226.508    23326219.254
        39.800          26.900
 23  8  4 15 53 15.0000000  0  9G12G25G05G26G20G11G31G29G18
  -4191186.342 6  -2623454.55944  24078401.758    24078397.320
        39.700          25.000
 -18558801.732 7 -14415123.56846  21423478.609    21423473.406
        47.900          38.300
 -22731344.490 8 -16806353.74447  20867850.789    20867842.539
        49.900          42.700
  -5243760.252 6  -5368938.98346  23597558.977    23597552.777
        40.600          36.100
 -19411437.539 8 -13932468.50346  21518920.828    21518912.695
        48.700          38.200
 -13741722.899 6 -10436031.12644  23071703.844    23071697.176
        40.900          29.600
    251636.379 6  -3399949.96545  24376040.344    24376035.023
        38.800          35.700
 -18960598.368 8 -14524267.92847  20517887.664    20517879.063
        51.100          46.400
  -7581301.621 6  -8108186.22344  23317522.391    23317514.492
        40.200          27.100
 23  8  4 15 53 30.0000000  0  9G12G25G05G26G20G11G31G29G18
  -4132264.566 6  -2577541.61244  24089614.797    24089610.008
        38.600          26.500
 -18518371.828 7 -14383619.79646  21431172.391    21431166.836
        47.900          38.600
 -22744587.867 8 -16816673.26047  20865331.219    20865322.441
        50.300          43.300
  -5284217.875 6  -5400464.42346  23589859.672    23589854.410
        40.200          36.400
 -19389743.339 8 -13915563.95146  21523049.141    21523040.715
        49.100          37.900
 -13695987.427 6 -10400393.15544  23080407.117    23080400.391
        40.700          29.700
    270169.236 6  -3385508.77646  24379567.461    24379561.320
        40.100          36.300
 -18974588.631 8 -14535169.41647  20515225.156    20515216.555
        51.000          46.300
  -7626996.269 6  -8143792.42844  23308826.469    23308819.449
        40.000          26.900
 23  8  4 15 53 45.0000000  0  9G12G25G05G26G20G11G31G29G18
  -4073315.139 6  -2531607.09344  24100832.406    24100827.203
        40.400          25.000
 -18477834.384 8 -14352032.20946  21438886.664    21438881.051
        48.300          38.200
 -22757672.867 8 -16826869.36947  20862840.898    20862832.414
        50.600          42.900
  -5324581.415 6  -5431916.50046  23582178.297    23582173.859
        40.100          36.300
 -19367918.949 8 -13898557.94546  21527202.164    21527194.148
        48.800          37.800
 -13650215.437 6 -10364726.74144  23089115.602    23089110.340
        39.000          27.200
    288826.470 6  -3370970.69145  24383119.352    24383110.750
        40.400          34.300
 -18988484.669 8 -14545997.49647  20512580.500    20512572.133
        50.600          46.200
  -7672641.556 6  -8179360.17444  23300139.805    23300133.313
        39.700          26.900
 23  8  4 15 54  0.0000000  0  9G12G25G05G26G20G11G31G29G18
  -4014338.777 6  -2485651.53643  24112056.031    24112049.832
        40.400          23.000
 -18437190.163 8 -14320361.44046  21446621.102    21446615.195
        48.100          37.700
 -22770600.032 7 -16836942.49447  20860380.602    20860372.293
        47.900          42.900
  -5364851.077 6  -5463295.44446  23574514.328    23574510.770
        40.500          36.300
 -19345964.929 8 -13881450.93646  21531380.039    21531371.379
        49.500          37.600
 -13604407.698 6 -10329032.44244  23097833.359    23097826.984
        40.400          29.200
    307607.316 6  -3356336.30645  24386693.180    24386684.051
        40.200          33.700
 -19002286.833 8 -14556752.42947  20509954.406    20509945.512
        48.800          46.300
  -7718238.032 6  -8214889.88644  23291464.156    23291456.668
        40.900          25.500
 23  8  4 15 54 15.0000000  0  9G12G25G05G26G20G11G31G29G18
  -3955336.381 6  -2439675.74344  24123283.500    24123278.004
        40.400          26.500
 -18396440.112 8 -14288608.19346  21454375.359    21454369.922
        48.000          37.700
 -22783369.652 7 -16846892.85247  20857950.813    20857942.680
        47.800          42.900
  -5405027.166 6  -5494601.47046  23566868.422    23566865.273
        39.500          36.400
 -19323882.113 8 -13864243.55546  21535582.297    21535574.105
        48.600          38.300
 -13558565.039 6 -10293310.91544  23106558.156    23106551.430
        41.300          29.900
    326510.821 6  -3341606.34145  24390289.664    24390283.172
        39.800          34.500
 -19015995.530 8 -14567434.52147  20507345.172    20507336.922
        48.500          46.400
  -7763786.107 6  -8250381.86344  23282795.469    23282789.270
        40.200          26.600
 23  8  4 15 54 30.0000000  0  9G12G25G05G26G20G11G31G29G18
  -3896307.287 6  -2393679.13244  24134516.688    24134511.484
        40.900          25.600
 -18355583.687 7 -14256772.05846  21462150.078    21462144.465
        47.900          37.700
 -22795980.781 8 -16856719.71247  20855551.078    20855542.594
        50.000          43.000
  -5445108.451 6  -5525833.64546  23559241.133    23559237.867
        39.200          36.300
 -19301669.880 8 -13846935.33946  21539809.219    21539801.027
        48.700          37.700
 -13512686.737 6 -10257561.66444  23115287.875    23115281.852
        40.900          29.800
    345537.606 6  -3326780.24645  24393910.078    24393903.117
        38.700          34.600
 -19029609.752 8 -14578043.00247  20504754.914    20504746.430
        51.400          46.200
  -7809284.808 6  -8285835.36844  23274138.320    23274130.715
        40.800          26.800
 23  8  4 15 54 45.0000000  0 10G12G25G05G26G20G11G31G29G28G18
  -3837257.196 6  -2347666.16544  24145754.258    24145747.883
        40.900          25.100
 -18314626.246 8 -14224857.19846  21469943.734    21469938.652
        48.100          37.400
 -22808438.382 8 -16866426.94247  20853180.602    20853172.117
        51.200          43.100
  -5485099.865 6  -5556995.76946  23551632.664    23551627.699
        41.100          36.400
 -19279333.643 8 -13829530.50546  21544059.633    21544050.973
        48.700          38.400
 -13466778.121 6 -10221788.79044  23124023.961    23124017.586
        40.400          28.000
    364682.423 6  -3311862.25945  24397554.352    24397546.570
        38.500          33.200
 -19043134.594 8 -14588581.84447  20502180.898    20502172.355
        51.200          46.300
    263501.91115                  24628646.961
        33.100
  -7854739.114 6  -8321254.31444  23265489.047    23265481.207
        41.800          28.900
 23  8  4 15 55  0.0000000  0 10G12G25G05G26G20G11G31G29G28G18
  -3778177.718 6  -2301630.26244  24156996.859    24156989.957
        41.600          24.800
 -18273559.551 8 -14192857.21346  21477759.852    21477753.066
        48.100          37.600
 -22820733.678 8 -16876007.69947  20850840.586    20850832.336
        50.400          42.800
  -5524992.408 6  -5588080.87645  23544041.477    23544035.453
        41.200          35.800
 -19256864.906 8 -13812022.42146  21548335.406    21548327.215
        48.900          38.600
 -13420830.826 6 -10185985.75144  23132767.242    23132760.984
        40.600          29.300
    383953.673 6  -3296845.77544  24401220.195    24401211.535
        36.300          29.900
 -19056561.147 8 -14599044.09347  20499625.945    20499617.227
        51.000          46.600
    300386.092 5                  24635665.547
        32.200
  -7900140.353 7  -8356631.86944  23256849.766    23256841.691
        42.400          29.400
 23  8  4 15 55 15.0000000  0  9G12G25G05G26G20G11G31G29G18
  -3719067.861 6  -2255570.72244  24168243.852    24168239.004
        41.300          26.400
 -18232382.661 7 -14160771.35646  21485594.688    21485589.309
        47.600          38.100
 -22832865.631 8 -16885461.17847  20848532.094    20848523.902
        49.600          43.000
  -5564784.587 6  -5619087.76745  23536468.469    23536463.680
        40.600          35.900
 -19234262.708 8 -13794410.32846  21552636.164    21552628.090
        48.700          38.900
 -13374843.796 7 -10150151.73845  23141518.828    23141512.395
        42.200          30.000
    403352.114 6  -3281730.09545  24404912.453    24404904.379
        38.300          32.000
 -19069888.138 8 -14609428.74247  20497090.133    20497081.355
        51.200          46.500
  -7945487.163 7  -8391967.01644  23248220.039    23248212.785
        42.200          28.800
 23  8  4 15 55 30.0000000  0  9G12G25G05G26G20G11G31G29G18
  -3659937.290 6  -2209495.05144  24179496.711    24179490.922
        41.300          26.800
 -18191105.365 8 -14128607.28146  21493449.625    21493444.012
        48.000          38.100
 -22844843.396 8 -16894794.51747  20846253.180    20846244.754
        50.500          43.000
  -5604485.591 6  -5650023.59846  23528913.234    23528910.027
        39.600          36.400
 -19211536.643 8 -13776701.72846  21556961.023    21556952.656
        49.300          38.500
 -13328826.751 6 -10114294.34844  23150275.648    23150269.449
        41.900          29.700
    422868.169 6  -3266522.79945  24408625.469    24408619.797
        38.500          34.300
 -19083124.992 8 -14619743.17447  20494571.109    20494562.859
        51.000          46.400
  -7990788.879 6  -8427267.03544  23239598.703    23239591.977
        41.300          28.500
 23  8  4 15 55 45.0000000  0  9G12G25G05G26G20G11G31G29G18
  -3600781.595 7  -2163399.78844  24190754.188    24190748.340
        42.000          26.400
 -18149723.129 8 -14096361.41646  21501324.414    21501318.684
        48.100          37.700
 -22856662.109 8 -16904003.90647  20844003.797    20843995.371
        50.700          43.400
  -5644090.253 6  -5680884.36045  23521375.203    23521373.051
        38.400          35.700
 -19188682.193 8 -13758893.08046  21561310.219    21561301.383
        49.700          38.500
 -13282775.043 6 -10078409.94544  23159038.320    23159032.531
        40.100          27.700
    442506.453 6  -3251220.29545  24412363.859    24412355.961
        39.200          32.800
 -19096266.641 8 -14629983.41747  20492070.375    20492062.066
        50.700          46.600
  -8036040.585 7  -8462528.09744  23230988.016    23230980.586
        42.600          28.300
 23  8  4 15 56  0.0000000  0  9G12G25G05G26G20G11G31G29G18
  -3541601.930 6  -2117285.86544  24202016.641    24202009.328
        41.100          25.800
 -18108237.094 8 -14064034.67246  21509219.250    21509213.051
        48.100          38.400
 -22868322.574 7 -16913089.98947  20841784.672    20841776.773
        47.600          43.100
  -5683599.132 6  -5711670.49046  23513858.391    23513854.539
        39.700          36.600
 -19165700.366 8 -13740985.17846  21565683.000    21565675.219
        48.500          38.200
 -13236689.646 6 -10042499.29944  23167808.820    23167802.152
        41.400          29.100
    462265.847 6  -3235823.38845  24416123.109    24416114.684
        39.300          33.100
 -19109313.842 8 -14640150.07447  20489587.641    20489579.156
        49.000          46.600
  -8081242.953 7  -8497750.73544  23222386.898    23222379.059
        42.600          29.400
 23  8  4 15 56 15.0000000  0  9G12G25G05G26G20G11G31G29G18
  -3482398.701 6  -2071153.57844  24213281.734    24213275.711
        39.900          25.700
 -18066647.614 7 -14031627.33046  21517133.484    21517127.695
        47.500          38.200
 -22879824.706 8 -16922052.68647  20839596.086    20839587.953
        48.000          42.900
  -5723011.901 6  -5742381.74446  23506358.680    23506354.359
        40.000          37.300
 -19142591.523 8 -13722978.30346  21570081.000    21570072.398
        49.100          38.000
 -13190570.812 6 -10006562.60644  23176585.070    23176578.520
        41.300          29.400
    482146.203 6  -3220332.23445  24419906.797    24419898.605
        39.500          34.900
 -19122266.466 8 -14650243.03247  20487122.625    20487114.141
        48.800          46.400
  -8126395.926 7  -8532934.84744  23213794.258    23213786.770
        42.500          28.500
 23  8  4 15 56 30.0000000  0  9G12G25G05G26G20G11G31G29G18
  -3423171.198 6  -2025002.39244  24224551.266    24224546.359
        37.900          24.600
 -18024954.069 7 -13999138.89746  21525067.102    21525062.020
        46.700          37.500
 -22891167.352 8 -16930891.12847  20837437.164    20837429.441
        48.400          42.800
  -5762327.485 6  -5773017.25146  23498877.750    23498873.195
        40.800          37.300
 -19119354.987 8 -13704871.93546  21574502.609    21574494.418
        49.100          37.900
 -13144417.912 7  -9970599.36144  23185367.953    23185361.578
        42.200          28.800
    502148.053 6  -3204746.40045  24423712.531    24423704.867
        38.700          33.700
 -19135123.462 8 -14660261.45347  20484676.195    20484667.477
        50.100          46.600
  -8171498.515 7  -8568079.70744  23205211.703    23205204.039
        43.400          29.300
 23  8  4 15 56 45.0000000  0  9G12G25G05G26G20G11G31G29G18
  -3363920.263 6  -1978832.94443  24235827.898    24235821.816
        38.900          22.200
 -17983157.390 7 -13966570.08546  21533020.648    21533015.094
        47.700          37.200
 -22902351.212 8 -16939605.82847  20835309.297    20835301.223
        49.900          42.700
  -5801546.071 6  -5803577.17246  23491414.477    23491410.215
        40.600          36.900
 -19095991.391 8 -13686666.55646  21578948.453    21578940.086
        48.800          38.000
 -13098231.687 7  -9934610.13644  23194156.680    23194149.953
        42.200          27.800
    522270.509 6  -3189066.60245  24427542.438    24427534.715
        40.000          35.400
 -19147885.269 8 -14670205.71547  20482247.727    20482239.535
        50.900          46.700
  -8216551.126 7  -8603185.63044  23196637.797    23196631.070
        42.800          28.700
 23  8  4 15 57  0.0000000  0  9G12G25G05G26G20G11G31G29G18
  -3304646.338 6  -1932645.54443  24247107.070    24247100.520
        39.400          22.600
 -17941257.799 7 -13933921.07846  21540993.969    21540988.238
        47.500          37.000
 -22913376.140 8 -16948196.69247  20833211.477    20833203.227
        50.800          42.700
  -5840667.347 6  -5834061.27046  23483969.211    23483965.594
        39.700          36.300
 -19072500.934 8 -13668362.32546  21583418.703    21583410.570
        48.400          37.800
 -13052012.320 6  -9898595.09444  23202951.898    23202945.406
        41.100          28.300
    542513.343 6  -3173292.97545  24431393.547    24431386.820
        40.100          35.300
 -19160551.766 8 -14680075.71447  20479837.328    20479828.844
        51.400          46.600
  -8261553.656 7  -8638252.52644  23188074.477    23188067.340
        43.200          28.600
 23  8  4 15 57 15.0000000  0  9G12G25G05G26G20G11G31G29G18
  -3245348.791 6  -1886439.73643  24258389.867    24258384.664
        38.600          22.900
 -17899254.805 7 -13901191.51246  21548987.438    21548982.176
        47.800          37.900
 -22924241.282 7 -16956663.04447  20831143.609    20831135.887
        47.600          43.000
  -5879690.219 6  -5864468.67946  23476542.656    23476539.156
        38.400          37.100
 -19048883.116 8 -13649958.85146  21587913.000    21587904.516
        48.600          38.200
 -13005759.139 6  -9862553.68144  23211753.492    23211746.941
        40.700          26.900
    562877.201 6  -3157425.10645  24435268.852    24435262.008
        40.000          35.000
 -19173121.954 8 -14689870.66747  20477445.125    20477436.875
        49.000          46.700
  -8306505.174 7  -8673279.67144  23179520.641    23179513.211
        42.300          29.200
 23  8  4 15 57 30.0000000  0  9G12G25G05G26G20G11G31G29G18
  -3186028.727 6  -1840216.36943  24269679.266    24269672.949
        38.700          22.800
 -17857149.568 8 -13868382.27846  21556999.602    21556994.047
        48.100          37.300
 -22934947.474 8 -16965005.53747  20829106.609    20829098.184
        50.300          42.800
  -5918615.110 6  -5894799.78746  23469135.688    23469132.773
        38.900          37.000
 -19025138.888 8 -13631456.87746  21592431.195    21592422.945
        48.600          38.300
 -12959473.144 6  -9826486.72144  23220560.953    23220555.164
        40.900          27.000
    583360.939 6  -3141463.76045  24439166.039    24439159.898
        38.300          34.300
 -19185596.511 8 -14699591.11547  20475071.344    20475062.859
        51.100          46.700
  -8351406.340 7  -8708267.60144  23170975.523    23170968.680
        43.000          28.700
 23  8  4 15 57 45.0000000  0  9G12G25G05G26G20G11G31G29G18
  -3126686.423 6  -1793975.72843  24280971.602    24280966.340
        38.900          22.900
 -17814942.321 7 -13835493.56246  21565030.469    21565025.680
        47.000          36.800
 -22945494.320 8 -16973223.85247  20827099.414    20827091.223
        50.300          42.900
  -5957441.788 6  -5925054.32346  23461747.320    23461743.879
        39.500          37.000
 -19001268.427 8 -13612856.54246  21596974.023    21596965.598
        48.200          38.200
 -12913154.550 6  -9790394.37744  23229375.508    23229369.602
        41.200          28.200
    603964.288 6  -3125409.21745  24443087.617    24443080.539
        39.800          34.800
 -19197975.380 8 -14709236.99247  20472716.094    20472707.023
        51.200          46.400
  -8396257.015 7  -8743216.16645  23162440.633    23162434.551
        42.700          30.000
 23  8  4 15 58  0.0000000  0  9G12G25G05G26G20G11G31G29G18
  -3067322.798 6  -1747718.44444  24292267.906    24292262.766
        38.700          25.600
 -17772633.877 7 -13802525.98046  21573082.180    21573077.098
        47.200          37.100
 -22955882.189 8 -16981318.30647  20825122.523    20825114.859
        49.300          42.600
  -5996170.376 6  -5955232.45646  23454378.031    23454373.535
        40.500          37.700
 -18977272.453 8 -13594158.39746  21601540.438    21601531.719
        49.000          38.300
 -12866804.037 7  -9754277.15944  23238196.445    23238189.719
        42.200          28.800
    624686.657 6  -3109261.91846  24447032.891    24447023.938
        40.400          36.000
 -19210258.762 8 -14718808.46447  20470378.383    20470369.898
        51.500          46.600
  -8441057.576 7  -8778125.69144  23153915.258    23153908.414
        42.400          28.900
 23  8  4 15 58 15.0000000  0  9G12G25G05G26G20G11G31G29G18
  -3007937.454 6  -1701444.25243  24303568.516    24303564.313
        37.100          23.900
 -17730223.930 7 -13769479.30046  21581152.594    21581147.273
        47.500          37.400
 -22966110.601 8 -16989288.51247  20823176.469    20823168.160
        48.900          42.900
  -6034800.026 6  -5985333.46546  23447027.750    23447022.902
        40.200          36.700
 -18953150.718 8 -13575362.25846  21606130.602    21606121.473
        49.000          38.000
 -12820421.165 6  -9718134.69044  23247022.609    23247016.176
        41.200          28.500
    645528.397 6  -3093021.63745  24450996.609    24450989.238
        38.400          34.400
 -19222446.032 8 -14728305.03247  20468059.266    20468050.840
        50.700          46.600
  -8485807.301 7  -8812995.59645  23145400.148    23145393.129
        42.800          30.400
 23  8  4 15 58 30.0000000  0 10G12G25G05G26G20G11G31G29G28G18
  -2948532.345 6  -1655154.67543  24314873.297    24314869.270
        38.100          23.400
 -17687714.328 7 -13736354.97346  21589241.758    21589236.438
        47.000          37.400
 -22976180.963 8 -16997135.54147  20821260.188    20821252.055
        50.500          42.700
  -6073331.927 6  -6015358.29346  23439696.195    23439691.465
        41.800          37.300
 -18928904.886 8 -13556469.42246  21610744.344    21610735.918
        48.700          37.700
 -12774007.692 6  -9681968.39044  23255854.250    23255848.285
        41.100          27.500
    666487.801 6  -3076689.66745  24454984.633    24454978.023
        37.500          33.000
 -19234538.502 8 -14737727.73147  20465758.195    20465749.477
        51.100          47.000
    517087.55014                  24735277.195
        28.900
  -8530507.612 7  -8847827.00045  23136894.758    23136887.211
        44.700          31.000
 23  8  4 15 58 45.0000000  0 10G12G25G05G26G20G11G31G29G28G18
  -2889102.706 6  -1608845.98444  24326183.117    24326178.211
        38.500          24.200
 -17645100.492 7 -13703149.41446  21597351.547    21597345.699
        47.600          36.900
 -22986088.221 8 -17004855.49047  20819374.477    20819366.578
        50.000          42.700
  -6111760.859 6  -6045302.91246  23432381.648    23432378.207
        39.300          36.500
 -18904530.317 8 -13537476.27646  21615382.039    21615374.375
        49.000          37.700
 -12727558.805 6  -9645774.50844  23264693.000    23264686.918
        39.400          27.300
    687569.493 6  -3060262.43845  24458996.742    24458991.129
        38.900          33.800
 -19246531.140 8 -14747072.64047  20463475.922    20463467.730
        50.400          46.800
    554972.41514                  24742487.508
        28.300
  -8575153.405 7  -8882615.90645  23128398.586    23128391.625
        43.400          31.000
 23  8  4 15 59  0.0000000  0 10G12G25G05G26G20G11G31G29G28G18
  -2829653.758 6  -1562522.24144  24337495.625    24337491.305
        38.300          25.300
 -17602387.699 7 -13669866.75346  21605479.563    21605473.480
        47.800          37.500
 -22995837.615 8 -17012452.42847  20817519.664    20817511.473
        50.000          42.800
  -6150091.648 6  -6075171.03545  23425086.367    23425083.160
        37.100          35.600
 -18880032.338 8 -13518386.95746  21620043.844    21620035.652
        48.800          37.400
 -12681079.861 6  -9609557.19944  23273538.117    23273532.094
        40.500          25.200
    708768.028 6  -3043744.12346  24463032.203    24463025.301
        39.700          36.100
 -19258428.865 8 -14756343.59947  20461212.070    20461203.645
        51.800          46.900
    592918.94114                  24749707.125
        26.800
  -8619749.710 7  -8917366.26145  23119911.414    23119904.336
        43.300          31.300
 23  8  4 15 59 15.0000000  0  9G12G25G05G26G20G11G31G29G18
  -2770184.836 6  -1516182.92844  24348812.453    24348807.313
        39.200          24.500
 -17559575.151 7 -13636506.37046  21613626.453    21613620.840
        47.600          36.800
 -23005427.489 8 -17019925.05647  20815694.875    20815686.684
        50.500          42.900
  -6188322.662 6  -6104961.39746  23417812.719    23417808.223
        39.400          36.100
 -18855409.712 8 -13499200.51446  21624730.063    21624721.754
        48.700          37.600
 -12634569.762 6  -9573315.58144  23282388.508    23282382.426
        41.300          28.400
    730084.479 6  -3027133.89745  24467088.805    24467080.379
        41.500          34.800
 -19270230.346 8 -14765539.56347  20458965.789    20458957.363
        51.800          46.900
  -8664295.139 7  -8952076.98345  23111434.633    23111428.375
        42.400          30.900
 23  8  4 15 59 30.0000000  0  9G12G25G05G26G20G11G31G29G18
  -2710695.485 6  -1469827.69444  24360131.703    24360128.027
        38.900          24.600
 -17516662.443 7 -13603067.93646  21621792.313    21621786.699
        47.200          36.800
 -23014857.035 8 -17027272.75547  20813900.023    20813892.008
        49.900          42.800
  -6226453.024 6  -6134673.37146  23410557.438    23410551.648
        39.500          36.000
 -18830662.060 8 -13479916.65346  21629438.789    21629430.949
        48.200          37.100
 -12588028.059 6  -9537049.37844  23291244.703    23291239.563
        40.400          27.800
    751519.222 6  -3010431.51145  24471165.422    24471158.754
        39.200          33.600
 -19281934.969 8 -14774660.04547  20456738.852    20456730.309
        51.600          47.000
  -8708788.943 7  -8986747.44745  23102968.797    23102961.309
        43.800          31.200
 23  8  4 15 59 45.0000000  0 10G12G25G05G26G20G11G31G29G28G18
  -2651189.275 6  -1423459.29343  24371454.844    24371451.109
        37.900          22.200
 -17473653.110 7 -13569554.20346  21629976.797    21629971.242
        46.800          36.300
 -23024129.964 8 -17034498.42247  20812135.641    20812127.391
        50.200          43.500
  -6264485.667 6  -6164309.20045  23403319.438    23403314.648
        39.800          35.500
 -18805792.857 8 -13460538.07946  21634171.508    21634163.141
        48.300          37.600
 -12541458.214 6  -9500761.26644  23300107.219    23300101.430
        39.900          28.400
    773068.704 6  -2993639.73345  24475267.758    24475261.207
        41.000          35.500
 -19293545.720 8 -14783707.38247  20454529.148    20454520.898
        51.700          46.900
    446329.38115                  24771444.039
        32.400
  -8753234.266 7  -9021380.16445  23094511.484    23094503.352
        43.800          31.100
 23  8  4 16  0  0.0000000  0 10G12G25G05G26G20G11G31G29G28G18
  -2591660.875 6  -1377073.61643  24382784.039    24382779.016
        38.700          22.200
 -17430541.952 7 -13535961.11246  21638180.242    21638174.922
        47.500          36.800
 -23033240.439 8 -17041597.50347  20810402.719    20810393.941
        50.900          42.900
  -6302414.755 6  -6193864.30345  23396102.297    23396097.625
        39.000          34.900
 -18780796.861 8 -13441060.69046  21638928.305    21638920.289
        48.500          37.600
 -12494854.833 6  -9464447.01544  23308974.914    23308970.477
        40.300          27.500
    794738.241 6  -2976754.41745  24479391.313    24479384.000
        41.000          35.200
 -19305056.778 8 -14792677.05147  20452339.094    20452330.141
        51.700          46.700
    484525.859 5                  24778711.625
        32.300
  -8797625.405 7  -9055970.63545  23086063.836    23086056.406
        44.200          31.200
 23  8  4 16  0 15.0000000  0 10G12G25G05G26G20G11G31G29G28G18
  -2532113.506 6  -1330673.14543  24394114.906    24394110.234
        39.400          22.600
 -17387331.996 7 -13502291.04346  21646403.344    21646397.379
        47.200          37.700
 -23042191.237 8 -17048572.15347  20808698.969    20808690.543
        50.300          42.900
  -6340242.693 6  -6223340.60045  23388904.008    23388898.570
        40.600          35.100
 -18755676.941 8 -13421486.75646  21643708.359    21643700.109
        48.300          38.000
 -12448220.815 6  -9428108.88044  23317848.719    23317843.754
        39.400          25.800
    816524.717 6  -2959777.95545  24483537.813    24483528.918
        40.900          34.900
 -19316470.828 8 -14801571.11447  20450166.695    20450158.445
        51.100          46.900
    522783.790 4                  24785993.047
        28.600
  -8841964.976 7  -9090520.92645  23077625.656    23077618.637
        44.300          31.100
 23  8  4 16  0 30.0000000  0  9G12G25G05G26G20G11G31G29G18
  -2472544.080 6  -1284255.52744  24405451.867    24405445.961
        41.000          24.700
 -17344020.251 7 -13468541.65646  21654645.008    21654639.867
        46.500          37.400
 -23050978.563 8 -17055419.42747  20807026.484    20807018.645
        50.000          43.000
  -6377965.905 6  -6252735.30146  23381724.797    23381720.711
        40.000          36.000
 -18730430.100 8 -13401813.90746  21648513.117    21648504.809
        48.800          37.800
 -12401553.083 6  -9391744.45444  23326729.805    23326724.016
        40.300          26.100
    838431.349 6  -2942707.87445  24487705.594    24487698.164
        39.800          35.500
 -19327784.363 8 -14810386.87447  20448014.125    20448005.758
        51.100          46.900
  -8886249.521 7  -9125028.35845  23069199.406    23069191.215
        43.900          31.100
 23  8  4 16  0 45.0000000  0  9G12G25G05G26G20G11G31G29G18
  -2412959.185 6  -1237825.83244  24416791.438    24416785.180
        41.700          26.200
 -17300613.340 7 -13434718.11346  21662904.961    21662899.699
        46.900          37.700
 -23059608.874 8 -17062144.34647  20805384.320    20805376.070
        50.500          43.000
  -6415590.317 6  -6282052.99945  23374564.250    23374560.516
        38.300          35.200
 -18705062.838 8 -13382047.23446  21653340.352    21653331.750
        49.400          38.300
 -12354858.171 7  -9355358.83744  23335616.414    23335610.156
        42.100          28.400
    860451.479 6  -2925549.36045  24491897.008    24491889.051
        40.900          35.600
 -19339003.575 8 -14819129.12747  20445878.875    20445870.566
        51.900          46.900
  -8930485.300 7  -9159497.79245  23060781.641    23060773.156
        44.100          31.400
 23  8  4 16  1  0.0000000  0  9G12G25G05G26G20G11G31G29G18
  -2353356.149 7  -1191382.00844  24428133.180    24428127.391
        42.000          26.000
 -17257108.585 7 -13400818.33246  21671183.711    21671178.156
        46.800          37.400
 -23068079.350 8 -17068744.71847  20803772.203    20803764.188
        49.100          42.900
  -6453112.753 6  -6311291.25646  23367424.141    23367420.641
        40.200          36.100
 -18679572.483 8 -13362184.63946  21658191.000    21658182.516
        49.000          37.700
 -12308133.209 6  -9318949.81844  23344506.906    23344501.766
        41.600          28.900
    882587.848 6  -2908300.27646  24496108.648    24496101.980
        40.600          36.100
 -19350125.392 8 -14827795.48647  20443762.664    20443754.121
        50.800          46.900
  -8974669.190 7  -9193926.77345  23052373.602    23052365.410
        44.500          31.400
 23  8  4 16  1 15.0000000  0  9G12G25G05G26G20G11G31G29G18
  -2293734.531 6  -1144923.71044  24439477.961    24439473.172
        40.900          24.700
 -17213505.708 7 -13366842.09346  21679481.344    21679475.965
        46.200          37.400
 -23076389.263 8 -17075219.98747  20802190.859    20802183.020
        50.300          43.100
  -6490532.278 6  -6340449.29746  23360303.930    23360299.551
        40.500          36.800
 -18653958.533 8 -13342225.73546  21663064.797    21663056.430
        48.500          37.500
 -12261377.726 6  -9282517.05544  23353405.539    23353399.164
        41.600          29.600
    904840.885 6  -2890960.28545  24500342.398    24500336.023
        39.500          35.100
 -19361149.111 8 -14836385.41447  20441665.242    20441656.641
        52.000          46.900
  -9018800.395 7  -9228314.72945  23043974.805    23043967.492
        43.900          30.600
 23  8  4 16  1 30.0000000  0  9G12G25G05G26G20G11G31G29G18
  -2234095.410 6  -1098451.77844  24450827.336    24450822.781
        41.200          24.500
 -17169805.809 7 -13332790.27146  21687796.875    21687791.734
        46.600          36.900
 -23084539.161 8 -17081570.56147  20800640.422    20800632.348
        50.200          42.900
  -6527849.320 6  -6369527.50945  23353201.992    23353198.258
        39.000          35.500
 -18628222.007 8 -13322171.31446  21667962.609    21667954.242
        49.000          37.100
 -12214592.789 7  -9246061.32744  23362308.352    23362302.270
        42.400          29.600
    927209.608 6  -2873530.11746  24504600.188    24504592.230
        41.300          36.900
 -19372075.292 8 -14844899.32947  20439585.508    20439577.492
        51.600          47.100
  -9062879.629 7  -9262662.18045  23035586.891    23035579.520
        43.400          30.800
 23  8  4 16  1 45.0000000  0  9G12G25G05G26G20G11G31G29G18
  -2174438.568 6  -1051965.99143  24462179.039    24462174.660
        39.800          22.900
 -17126008.645 7 -13298662.65246  21696131.703    21696126.148
        46.400          36.200
 -23092528.248 8 -17087795.82947  20799119.414    20799111.633
        49.900          42.900
  -6565063.179 6  -6398525.32246  23346121.273    23346117.070
        39.800          36.100
 -18602362.700 8 -13302021.22946  21672882.875    21672874.859
        48.700          37.700
 -12167778.043 6  -9209582.36844  23371215.070    23371210.691
        41.600          29.000
    949694.104 6  -2856009.76546  24508878.914    24508871.309
        41.700          36.200
 -19382903.353 8 -14853336.77947  20437525.086    20437516.895
        51.700          47.100
  -9106906.316 7  -9296968.67845  23027208.281    23027201.145
        43.600          31.200
 23  8  4 16  2  0.0000000  0  9G12G25G05G26G20G11G31G29G18
  -2114764.618 6  -1005466.90243  24473534.719    24473530.164
        39.700          22.300
 -17082114.734 7 -13264459.61946  21704483.672    21704478.469
        46.100          36.000
 -23100357.013 8 -17093896.16347  20797630.125    20797621.699
        50.700          42.900
  -6602173.642 6  -6427442.52645  23339059.234    23339055.383
        40.100          35.500
 -18576380.977 8 -13281775.75746  21677827.180    21677819.281
        48.500          37.700
 -12120933.791 7  -9173080.38944  23380131.000    23380124.508
        43.500          29.400
    972293.996 6  -2838399.49545  24513178.609    24513172.352
        39.000          34.400
 -19393633.209 8 -14861697.70947  20435483.531    20435474.871
        51.900          47.000
  -9150880.408 7  -9331234.19945  23018840.672    23018833.242
        43.200          31.800
 23  8  4 16  2 15.0000000  0  9G12G25G05G26G20G11G31G29G18
  -2055074.193 6   -958955.00443  24484894.852    24484889.297
        39.900          22.300
 -17038124.790 7 -13230181.77946  21712854.820    21712849.855
        46.400          36.300
 -23108025.831 8 -17099871.87247  20796170.930    20796162.680
        50.700          42.800
  -6639180.842 6  -6456279.27546  23332017.664    23332012.461
        39.600          36.100
 -18550277.546 8 -13261435.43246  21682795.031    21682786.371
        48.800          38.300
 -12074060.686 7  -9136555.92445  23389050.531    23389044.273
        44.100          31.000
    995008.624 6  -2820699.81345  24517500.617    24517494.828
        38.000          34.800
 -19404265.259 8 -14869982.43147  20433459.992    20433451.625
        51.600          47.100
  -9194802.276 7  -9365459.00345  23010482.727    23010475.824
        43.900          31.500
 23  8  4 16  2 30.0000000  0  9G12G25G05G26G20G11G31G29G18
  -1995367.646 6   -912430.50743  24496256.461    24496251.141
        38.800          21.300
 -16994039.101 7 -13195829.32646  21721244.250    21721238.754
        46.700          36.300
 -23115534.549 8 -17105722.82547  20794741.758    20794733.625
        50.500          43.000
  -6676084.430 6  -6485035.30445  23324994.398    23324989.902
        38.700          35.900
 -18524052.456 8 -13241000.32546  21687785.766    21687777.281
        49.500          37.500
 -12027158.931 7  -9100009.13444  23397975.258    23397969.469
        43.300          29.100
   1017837.829 6  -2802910.87345  24521844.664    24521837.879
        39.900          34.000
 -19414799.275 8 -14878190.76647  20431455.422    20431447.113
        51.900          47.000
  -9238671.739 7  -9399642.97945  23002134.602    23002127.699
        43.900          31.600
 23  8  4 16  2 45.0000000  0  9G12G25G05G26G20G11G31G29G18
  -1935644.762 6   -865893.32043  24507620.930    24507616.082
        36.700          19.600
 -16949857.514 7 -13161402.13946  21729652.141    21729646.000
        45.800          36.500
 -23122882.560 8 -17111448.55447  20793343.961    20793335.770
        50.500          43.100
  -6712883.714 6  -6513710.05445  23317990.563    23317987.473
        38.600          35.800
 -18497705.600 8 -13220470.33246  21692799.031    21692790.781
        48.800          37.400
 -11980228.109 7  -9063439.73744  23406905.805    23406899.957
        42.500          28.400
   1040781.506 6  -2785032.68445  24526211.492    24526204.355
        39.100          34.400
 -19425234.804 8 -14886322.35247  20429470.031    20429461.254
        52.500          47.000
  -9282488.210 7  -9433785.67545  22993796.508    22993789.430
        43.000          31.700
 23  8  4 16  3  0.0000000  0  9G12G25G05G26G20G11G31G29G18
  -1875905.441 5   -819343.31543  24518986.852    24518984.523
        34.600          20.400
 -16905580.009 7 -13126900.20946  21738077.578    21738072.316
        46.600          36.100
 -23130069.571 8 -17117048.82447  20791976.102    20791967.969
        50.700          43.100
  -6749577.970 6  -6542302.96345  23311008.063    23311004.270
        38.800          35.800
 -18471236.835 8 -13199845.34346  21697834.945    21697827.691
        48.500          37.600
 -11933268.119 7  -9026847.58444  23415842.266    23415836.359
        43.400          28.900
   1063840.031 6  -2767065.00645  24530599.656    24530593.047
        39.000          34.700
 -19435571.250 8 -14894376.74547  20427502.516    20427494.441
        52.300          47.100
  -9326251.228 7  -9467886.71745  22985468.938    22985461.977
        42.600          31.200
 23  8  4 16  3 15.0000000  0  9G12G25G05G26G20G11G31G29G18
  -1816150.907 5   -772781.49643  24530359.398    24530355.781
        35.500          19.600
 -16861207.716 7 -13092324.45046  21746521.906    21746516.469
        46.800          36.900
 -23137096.170 8 -17122524.10447  20790638.891    20790630.641
        51.000          43.000
  -6786167.813 6  -6570814.52046  23304047.102    23304041.547
        41.400          36.600
 -18444647.142 8 -13179126.13346  21702894.875    21702887.563
        48.000          37.500
 -11886279.970 7  -8990233.48444  23424784.328    23424778.129
        44.300          29.500
   1087012.257 6  -2749008.77345  24535009.109    24535002.617
        38.900          33.600
 -19445809.244 8 -14902354.42247  20425554.883    20425546.223
        50.800          47.100
  -9369961.510 7  -9501946.64945  22977151.547    22977144.527
        43.200          31.700
 23  8  4 16  3 30.0000000  0  9G12G25G05G26G20G11G31G29G18
  -1756380.643 5   -726207.40243  24541732.375    24541729.695
        34.700          20.400
 -16816740.245 7 -13057674.50546  21754983.195    21754978.289
        46.600          36.200
 -23143961.813 8 -17127873.95847  20789333.070    20789324.410
        51.600          43.300
  -6822652.167 6  -6599243.87746  23297103.352    23297099.324
        40.700          36.600
 -18417936.113 8 -13158312.37446  21707978.797    21707970.840
        48.000          36.900
 -11839263.143 7  -8953597.07445  23433730.797    23433725.066
        43.300          30.400
   1110298.517 6  -2730863.70745  24539438.531    24539432.625
        38.700          34.400
 -19455948.041 8 -14910254.80047  20423625.445    20423617.078
        52.100          47.200
  -9413618.249 7  -9535964.85645  22968843.328    22968836.426
        42.900          31.700
 23  8  4 16  3 45.0000000  0  9G12G25G05G26G20G11G31G29G18
  -1696595.699 5   -679621.82143  24553109.477    24553106.621
        34.600          19.300
 -16772178.930 7 -13022951.42846  21763463.141    21763457.703
        46.500          36.500
 -23150667.518 8 -17133099.17947  20788056.055    20788048.098
        50.000          42.900
  -6859031.765 6  -6627591.62046  23290180.234    23290176.207
        40.800          37.200
 -18391104.874 8 -13137404.93046  21713084.602    21713076.469
        48.600          37.500
 -11792218.753 7  -8916939.16145  23442684.570    23442678.137
        44.200          30.600
   1133697.539 6  -2712630.69545  24543893.945    24543886.223
        40.000          34.700
 -19465988.431 8 -14918078.48047  20421714.305    20421706.582
        51.900          47.200
  -9457222.277 7  -9569942.01745  22960545.586    22960538.977
        42.200          30.300
 23  8  4 16  4  0.0000000  0  9G12G25G05G26G20G11G31G29G18
  -1636796.545 6   -633025.21643  24564490.438    24564485.355
        37.400          19.000
 -16727523.936 7 -12988155.35546  21771960.234    21771955.445
        46.400          36.200
 -23157212.955 8 -17138199.52947  20786810.656    20786802.523
        50.100          42.900
  -6895306.177 6  -6655857.40946  23283278.289    23283273.324
        40.900          37.600
 -18364153.725 8 -13116404.06346  21718213.352    21718204.984
        48.000          36.800
 -11745146.926 7  -8880259.86544  23451641.188    23451634.930
        44.900          29.400
   1157209.366 6  -2694309.79945  24548367.438    24548360.418
        39.100          33.700
 -19475930.146 8 -14925825.28147  20419822.516    20419814.266
        52.300          47.300
  -9500773.435 7  -9603877.96345  22952258.055    22952251.328
        42.300          31.100
 23  8  4 16  4 15.0000000  0  9G12G25G05G26G20G11G31G29G18
  -1576982.708 6   -586417.14143  24575871.875    24575868.023
        36.300          19.300
 -16682774.869 7 -12953285.98445  21780476.383    21780471.063
        46.600          35.600
 -23163597.323 8 -17143174.36247  20785596.516    20785588.031
        50.800          43.100
  -6931474.492 6  -6684040.49346  23276396.188    23276391.340
        41.800          37.500
 -18337081.952 8 -13095309.19446  21723364.641    21723356.508
        48.400          36.900
 -11698047.148 7  -8843558.76644  23460604.398    23460597.555
        43.700          28.600
   1180834.249 6  -2675900.82745  24552862.422    24552855.871
        37.800          33.100
 -19485772.210 8 -14933494.43647  20417950.031    20417942.016
        52.800          47.500
  -9544270.781 7  -9637771.99045  22943981.672    22943973.656
        43.200          30.700
 23  8  4 16  4 30.0000000  0  9G12G25G05G26G20G11G31G29G18
  -1517155.057 6   -539798.31443  24587255.977    24587252.652
        36.300          20.100
 -16637932.674 7 -12918344.04845  21789009.516    21789004.375
        47.300          35.900
 -23169821.121 8 -17148024.08447  20784411.852    20784403.895
        50.200          43.200
  -6967536.856 6  -6712141.01046  23269533.023    23269528.293
        41.000          36.600
 -18309890.568 8 -13074121.12546  21728538.836    21728530.938
        48.500          37.000
 -11650920.120 7  -8806836.46344  23469571.977    23469565.777
        43.000          28.400
   1204571.302 6  -2657404.45345  24557381.367    24557372.590
        39.900          34.700
 -19495515.373 8 -14941086.50347  20416096.102    20416087.617
        51.800          47.400
  -9587714.875 7  -9671624.52344  22935713.859    22935706.664
        43.200          29.900
 23  8  4 16  4 45.0000000  0  9G12G25G05G26G20G11G31G29G18
  -1457313.071 5   -493168.31843  24598643.500    24598640.293
        35.500          20.100
 -16592996.712 7 -12883329.04946  21797560.531    21797555.328
        46.500          36.200
 -23175883.543 8 -17152748.04747  20783258.195    20783249.945
        50.400          43.000
  -7003492.241 6  -6740158.16246  23262690.633    23262686.781
        40.000          36.000
 -18282578.880 8 -13052839.30446  21733736.523    21733727.805
        48.100          36.600
 -11603765.177 7  -8770092.40444  23478545.398    23478539.141
        42.700          28.300
   1228421.262 6  -2638820.14645  24561918.984    24561912.199
        40.000          35.700
 -19505158.565 8 -14948600.67547  20414260.969    20414252.426
        52.300          47.700
  -9631104.670 7  -9705434.73845  22927456.539    22927450.223
        42.700          30.500
 23  8  4 16  5  0.0000000  0  9G12G25G05G26G20G11G31G29G18
  -1397458.100 6   -446528.16443  24610034.586    24610030.207
        38.000          21.100
 -16547968.444 7 -12848242.10745  21806129.305    21806124.043
        47.200          35.500
 -23181785.695 8 -17157347.13747  20782135.047    20782126.797
        51.100          43.100
  -7039341.251 6  -6768092.43746  23255869.086    23255864.883
        40.500          36.200
 -18255148.169 8 -13031464.74446  21738956.320    21738948.363
        48.800          36.400
 -11556583.467 7  -8733327.47344  23487524.273    23487517.488
        44.400          28.500
   1252382.869 6  -2620148.76545  24566478.461    24566471.793
        40.200          34.700
 -19514702.671 8 -14956037.63147  20412444.938    20412436.570
        52.600          47.200
  -9674441.074 7  -9739203.35445  22919209.531    22919203.332
        42.300          31.200
 23  8  4 16  5 15.0000000  0  9G12G25G05G26G20G11G31G29G18
  -1337589.797 6   -399877.66443  24621428.016    24621423.402
        39.300          22.600
 -16502847.610 7 -12813083.06145  21814714.820    21814709.680
        45.600          35.700
 -23187527.323 8 -17161821.13247  20781042.094    20781034.078
        50.100          43.200
  -7075083.201 6  -6795943.30146  23249067.133    23249063.281
        40.400          36.300
 -18227598.087 8 -13009997.17446  21744198.344    21744190.914
        48.600          36.200
 -11509374.745 7  -8696541.51744  23496506.688    23496501.547
        43.000          27.900
   1276456.117 6  -2601390.40445  24571060.156    24571052.961
        38.900          32.800
 -19524147.058 8 -14963396.90847  20410647.586    20410639.160
        52.200          47.400
  -9717723.513 7  -9772929.91745  22910974.047    22910966.793
        43.300          31.200
 23  8  4 16  5 30.0000000  0  9G12G25G05G26G20G11G31G29G18
  -1277709.085 6   -353217.50943  24632822.148    24632817.945
        39.200          22.300
 -16457635.030 7 -12777852.51646  21823318.508    21823313.777
        45.800          36.300
 -23193108.666 8 -17166170.23747  20779980.430    20779972.238
        50.600          43.100
  -7110718.184 6  -6823710.82146  23242288.320    23242282.414
        41.600          37.200
 -18199929.430 7 -12988437.21446  21749463.648    21749456.043
        47.800          36.200
 -11462139.665 7  -8659734.99144  23505496.164    23505490.375
        43.000          27.000
   1300640.462 6  -2582545.47045  24575661.391    24575653.551
        39.900          33.300
 -19533492.003 8 -14970678.68647  20408868.859    20408860.316
        51.000          47.200
  -9760952.327 7  -9806614.68845  22902748.156    22902741.020
        44.100          31.800
 23  8  4 16  5 45.0000000  0  9G12G25G05G26G20G11G31G29G18
  -1217815.753 6   -306547.49744  24644220.672    24644216.000
        40.100          24.200
 -16412330.547 7 -12742550.34646  21831940.109    21831935.438
        45.700          36.200
 -23198528.840 8 -17170393.74847  20778949.156    20778940.789
        50.900          43.200
  -7146245.564 7  -6851394.50246  23235526.391    23235522.070
        42.000          37.700
 -18172142.101 8 -12966784.76546  21754751.633    21754743.676
        48.000          36.900
 -11414877.888 7  -8622907.69544  23514489.875    23514484.320
        42.900          25.900
   1324936.059 6  -2563613.88445  24580284.766    24580277.746
        38.800          34.600
 -19542736.936 8 -14977882.53947  20407109.922    20407101.672
        52.200          47.400
  -9804126.964 7  -9840257.23645  22894531.891    22894524.871
        43.200          31.200
 23  8  4 16  6  0.0000000  0  9G12G25G05G26G20G11G31G29G18
  -1157910.158 6   -259867.90843  24655621.008    24655615.688
        40.400          23.200
 -16366934.624 7 -12707176.94546  21840578.820    21840573.441
        46.600          36.500
 -23203788.438 8 -17174492.14247  20777948.063    20777939.695
        51.100          43.100
  -7181665.129 6  -6878994.15446  23228785.320    23228781.293
        40.900          38.000
 -18144236.246 8 -12945039.95746  21760062.680    21760053.902
        48.300          36.400
 -11367589.764 7  -8586059.85544  23523487.648    23523482.328
        42.100          25.200
   1349342.318 6  -2544596.02845  24584929.508    24584922.957
        38.300          34.300
 -19551881.859 8 -14985008.44147  20405369.750    20405361.031
        51.700          47.300
  -9847247.454 7  -9873857.62345  22886326.461    22886318.855
        43.400          31.400
 23  8  4 16  6 15.0000000  0  9G12G25G05G26G20G11G31G29G18
  -1097992.241 6   -213178.76243  24667023.320    24667017.648
        40.900          23.800
 -16321447.293 7 -12671732.29645  21849234.516    21849229.254
        46.500          35.600
 -23208886.917 8 -17178464.99147  20776977.453    20776969.672
        50.100          43.300
  -7216976.274 6  -6906509.31746  23222065.695    23222061.199
        41.500          37.800
 -18116211.940 7 -12923202.85146  21765395.469    21765386.750
        47.900          36.300
 -11320275.084 7  -8549191.32343  23532491.391    23532485.719
        42.000          23.900
   1373859.543 6  -2525491.76045  24589593.047    24589588.844
        37.000          33.400
 -19560926.276 8 -14992056.03047  20403648.672    20403640.305
        51.900          47.500
  -9890313.279 7  -9907415.40745  22878131.313    22878124.059
        43.100          31.200
 23  8  4 16  6 30.0000000  0  9G12G25G05G26G20G11G31G29G18
  -1038062.839 6   -166480.63643  24678427.789    24678421.766
        39.800          22.500
 -16275869.247 7 -12636216.96545  21857907.375    21857902.820
        45.400          35.900
 -23213824.240 8 -17182312.26347  20776038.016    20776030.176
        50.800          43.400
  -7252179.076 7  -6933940.06346  23215367.273    23215363.305
        42.000          37.800
 -18088069.697 7 -12901273.85146  21770750.219    21770741.793
        47.600          36.400
 -11272934.514 6  -8512302.58543  23541499.156    23541493.895
        40.900          22.500
   1398486.851 6  -2506301.71145  24594280.430    24594274.289
        38.100          32.100
 -19569870.549 8 -14999025.59247  20401946.297    20401938.047
        52.700          47.300
  -9933324.810 7  -9940930.86845  22869946.852    22869938.953
        43.400          30.600
 23  8  4 16  6 45.0000000  0  9G12G25G05G26G20G11G31G29G18
   -978121.818 6   -119773.46943  24689833.633    24689828.078
        39.500          22.800
 -16230200.528 7 -12600630.99445  21866598.250    21866593.285
        45.500          35.300
 -23218599.730 8 -17186033.42647  20775129.438    20775121.188
        50.000          43.400
  -7287272.966 6  -6961285.93946  23208689.352    23208684.387
        41.300          38.000
 -18059809.553 7 -12879252.98546  21776127.563    21776119.723
        47.200          36.000
 -11225567.899 6  -8475393.57044  23550513.336    23550507.547
        41.300          25.500
   1423224.289 6  -2487025.78945  24598988.727    24598981.355
        38.400          33.000
 -19578714.172 8 -15005916.73847  20400263.734    20400255.250
        51.200          47.400
  -9976281.578 7  -9974403.65545  22861771.961    22861764.355
        43.500          31.900
 23  8  4 16  7  0.0000000  0  9G12G25G05G26G20G11G31G29G18
   -918170.230 6    -73058.06244  24701242.297    24701236.742
        40.000          26.100
 -16184442.135 7 -12564975.15546  21875306.281    21875300.902
        46.000          36.900
 -23223215.116 8 -17189629.83547  20774251.063    20774242.754
        50.000          43.300
  -7322258.433 6  -6988547.33146  23202032.289    23202027.559
        41.700          38.100
 -18031432.397 7 -12857140.93346  21781527.938    21781519.980
        47.200          36.600
 -11178176.044 6  -8438464.90644  23559532.602    23559526.813
        41.100          26.000
   1448071.013 6  -2467664.72145  24603717.375    24603709.887
        39.100          32.700
 -19587457.696 8 -15012729.87447  20398599.883    20398591.047
        51.100          47.300
 -10019184.205 7 -10007834.27245  22853607.945    22853600.574
        44.100          31.200
 23  8  4 16  7 15.0000000  0  9G12G25G05G26G20G11G31G29G18
   -858207.598 6    -26334.04844  24712651.039    24712647.246
        38.300          24.800
 -16138593.571 7 -12529249.04145  21884030.641    21884025.852
        46.200          35.900
 -23227669.253 8 -17193100.60247  20773404.070    20773395.527
        50.300          43.400
  -7357134.224 6  -7015723.25346  23195395.773    23195390.512
        41.200          37.400
 -18002937.534 7 -12834937.16246  21786950.555    21786942.129
        47.700          36.700
 -11130758.369 7  -8401516.11944  23568555.484    23568549.871
        42.000          26.100
   1473027.464 6  -2448218.18345  24608465.203    24608459.238
        36.400          31.100
 -19596100.231 8 -15019464.32247  20396955.609    20396946.656
        52.100          47.600
 -10062031.717 7 -10041221.93145  22845454.125    22845446.520
        43.900          31.600
 23  8  4 16  7 30.0000000  0  9G12G25G05G26G20G11G31G29G18
   -798234.052 6     20398.50743  24724063.148    24724060.176
        36.600          22.800
 -16092655.068 7 -12493452.84346  21892772.586    21892767.266
        45.900          36.600
 -23231962.139 8 -17196445.70647  20772586.977    20772578.551
        50.800          43.100
  -7391900.046 6  -7042813.49646  23188780.570    23188775.074
        40.200          37.400
 -17974325.275 7 -12812641.90546  21792395.055    21792387.039
        47.600          36.600
 -11083314.963 6  -8364547.26044  23577583.602    23577577.520
        41.600          26.100
   1498093.338 6  -2428686.36245  24613235.422    24613229.164
        37.600          32.500
 -19604641.579 8 -15026119.91247  20395329.914    20395321.371
        52.600          47.400
 -10104823.929 7 -10074566.49845  22837311.313    22837304.293
        43.800          31.600
 23  8  4 16  7 45.0000000  0  9G12G25G05G26G20G11G31G29G18
   -738250.350 6     67138.93343  24735478.047    24735474.664
        37.000          22.800
 -16046627.363 7 -12457587.13346  21901531.250    21901526.813
        45.600          36.000
 -23236094.295 8 -17199665.57347  20771800.555    20771791.895
        50.300          43.100
  -7426556.079 6  -7069818.16446  23182183.289    23182180.258
        38.600          37.600
 -17945596.392 7 -12790255.78146  21797862.180    21797853.930
        47.500          36.500
 -11035846.343 6  -8327558.80344  23586616.883    23586611.270
        41.100          24.700
   1523267.949 6  -2409069.80745  24618026.906    24618019.066
        39.200          32.800
 -19613081.989 8 -15032696.84247  20393723.859    20393715.199
        52.800          47.500
 -10147561.149 7 -10107868.20545  22829178.750    22829171.320
        44.900          32.600
 23  8  4 16  8  0.0000000  0  9G12G25G05G26G20G11G31G29G18
   -678257.245 6    113886.70343  24746894.516    24746891.602
        37.300          22.300
 -16000511.285 7 -12421652.57545  21910307.188    21910301.984
        45.700          35.700
 -23240065.716 8 -17202760.19647  20771044.469    20771036.336
        50.200          43.200
  -7461102.435 6  -7096737.37846  23175610.266    23175606.355
        40.200          37.900
 -17916751.516 7 -12767779.26846  21803351.227    21803343.035
        47.100          36.000
 -10988353.252 6  -8290551.27544  23595654.461    23595648.848
        40.900          24.400
   1548550.611 6  -2389369.05845  24622837.547    24622830.000
        39.300          32.800
 -19621421.891 8 -15039195.45947  20392136.836    20392128.352
        52.700          47.400
 -10190243.750 7 -10141127.36945  22821056.875    22821049.270
        44.700          32.800
 23  8  4 16  8 15.0000000  0  9G12G25G05G26G20G11G31G29G18
   -618254.073 6    160642.27643  24758314.031    24758310.063
        38.500          22.000
 -15954306.232 7 -12385648.66445  21919098.945    21919094.449
        45.200          35.600
 -23243875.508 8 -17205728.85747  20770319.500    20770311.777
        49.400          43.300
  -7495538.031 6  -7123570.26746  23169057.398    23169053.137
        39.800          38.000
 -17887789.984 7 -12745211.86046  21808861.773    21808853.758
        46.800          36.300
 -10940834.924 6  -8253524.03843  23604696.203    23604690.941
        39.900          22.900
   1573942.040 6  -2369583.53245  24627667.641    24627661.852
        36.300          30.200
 -19629660.156 8 -15045614.87547  20390568.727    20390560.535
        51.900          47.600
 -10232870.696 7 -10174343.16845  22812944.672    22812937.594
        43.900          32.400
 23  8  4 16  8 30.0000000  0  9G12G25G05G26G20G11G31G29G18
   -558241.707 6    207405.03343  24769734.297    24769729.625
        38.900          22.200
 -15908013.066 7 -12349576.09645  21927908.766    21927903.684
        45.000          35.600
 -23247524.480 8 -17208572.22947  20769625.008    20769617.285
        50.200          43.000
  -7529862.974 6  -7150316.96946  23162524.969    23162521.410
        40.200          38.000
 -17858712.573 7 -12722554.14846  21814395.664    21814387.238
        47.900          36.200
 -10893292.014 6  -8216477.65744  23613743.609    23613737.879
        41.500          25.600
   1599441.355 6  -2349713.95545  24632520.242    24632514.746
        36.800          30.200
 -19637797.109 8 -15051955.35847  20389020.703    20389012.102
        52.400          47.600
 -10275442.372 7 -10207515.88545  22804844.664    22804836.824
        45.500          33.000
 23  8  4 16  8 45.0000000  0  9G12G25G05G26G20G11G31G29G18
   -498221.172 6    254174.19843  24781156.195    24781151.406
        38.900          20.400
 -15861632.790 7 -12313435.65545  21936734.766    21936729.742
        45.000          35.500
 -23251013.211 8 -17211290.71647  20768961.539    20768953.230
        49.600          43.200
  -7564077.729 6  -7176977.79646  23156015.055    23156010.676
        40.600          38.900
 -17829520.190 7 -12699806.83946  21819950.883    21819942.340
        47.900          36.400
 -10845725.440 6  -8179412.83644  23622794.898    23622789.934
        41.100          25.300
   1625047.568 5  -2329761.13045  24637394.727    24637387.941
        35.900          31.500
 -19645833.394 8 -15058217.38947  20387491.438    20387482.660
        51.200          47.600
 -10317959.412 7 -10240646.04945  22796752.914    22796745.953
        44.700          31.800
 23  8  4 16  9  0.0000000  0  9G12G25G05G26G20G11G31G29G18
   -438191.814 6    300950.21243  24792580.609    24792575.406
        39.000          20.600
 -15815164.940 7 -12277226.98345  21945577.727    21945571.938
        45.400          35.300
 -23254340.906 8 -17213883.73047  20768328.023    20768319.949
        50.100          43.300
  -7598181.243 6  -7203551.94846  23149526.789    23149520.648
        41.300          38.000
 -17800212.264 7 -12676969.51046  21825528.141    21825519.539
        47.900          36.200
 -10798134.581 6  -8142329.09644  23631851.391    23631846.543
        39.800          26.000
   1650761.159 6  -2309724.58845  24642285.375    24642279.996
        36.300          32.200
 -19653768.211 8 -15064400.35647  20385981.344    20385973.035
        52.000          47.700
 -10360420.886 7 -10273732.88745  22788673.328    22788665.430
        44.700          32.800
 23  8  4 16  9 15.0000000  0  9G12G25G05G26G20G11G31G29G18
   -378154.386 6    347732.52543  24804004.969    24803999.828
        38.100          20.100
 -15768610.163 7 -12240950.55845  21954435.953    21954431.164
        44.700          35.500
 -23257507.987 8 -17216351.59247  20767725.391    20767717.199
        49.600          43.400
  -7632173.583 6  -7230039.45946  23143057.148    23143052.535
        38.600          37.600
 -17770789.395 7 -12654042.60745  21831126.883    21831118.457
        46.700          35.500
 -10750519.884 7  -8105226.77944  23640912.555    23640907.234
        42.200          27.800
   1676581.519 6  -2289604.84945  24647200.391    24647194.426
        37.100          32.800
 -19661601.557 8 -15070504.25547  20384490.375    20384482.418
        52.000          47.700
 -10402827.017 7 -10306776.61045  22780602.109    22780595.969
        43.100          31.700
 23  8  4 16  9 30.0000000  0  9G12G25G05G26G20G11G31G29G18
   -318108.470 6    394521.42043  24815431.211    24815426.422
        37.900          20.400
 -15721968.255 7 -12204606.25145  21963311.750    21963307.078
        45.200          34.800
 -23260513.773 8 -17218693.76847  20767153.117    20767145.277
        51.100          43.500
  -7666053.844 6  -7256439.64846  23136607.719    23136604.570
        39.000          36.900
 -17741251.161 7 -12631025.81246  21836747.430    21836739.590
        47.400          36.100
 -10702880.958 7  -8068105.59644  23649978.188    23649972.340
        43.000          27.800
   1702508.969 6  -2269401.67745  24652135.008    24652128.281
        36.900          31.500
 -19669332.914 8 -15076528.68647  20383019.477    20383011.461
        51.900          47.700
 -10445177.132 7 -10339776.69345  22772543.766    22772537.039
        44.400          32.400
 23  8  4 16  9 45.0000000  0  9G12G25G05G26G20G11G31G29G18
   -258054.856 5    441316.32543  24826857.906    24826853.938
        35.300          19.300
 -15675239.842 7 -12168194.53945  21972204.219    21972199.137
        45.800          35.100
 -23263358.452 8 -17220910.41347  20766611.906    20766603.891
        49.900          43.400
  -7699822.107 6  -7282752.58346  23130183.281    23130179.781
        40.600          38.800
 -17711598.383 7 -12607919.76745  21842390.672    21842381.953
        47.300          35.300
 -10655218.353 7  -8030965.96544  23659047.414    23659043.094
        42.500          28.500
   1728542.811 6  -2249115.61844  24657089.172    24657081.801
        36.000          29.500
 -19676962.418 8 -15082473.75447  20381567.773    20381559.289
        51.700          47.900
 -10487471.394 7 -10372733.25345  22764495.594    22764488.750
        44.300          32.400
 23  8  4 16 10  0.0000000  0  9G12G25G05G26G20G11G31G29G18
   -197993.492 5    488117.29843  24838284.164    24838283.125
        34.400          19.600
 -15628425.165 7 -12131715.59845  21981112.430    21981107.758
        45.800          34.800
 -23266041.992 8 -17223001.47847  20766101.664    20766093.414
        50.900          43.000
  -7733478.008 6  -7308977.93946  23123779.031    23123774.535
        40.700          38.900
 -17681831.116 8 -12584724.50345  21848055.461    21848046.801
        48.400          35.500
 -10607532.113 7  -7993807.90144  23668123.203    23668117.590
        43.400          28.800
   1754682.861 5  -2228746.78045  24662063.789    24662056.184
        35.800          31.300
 -19684489.834 8 -15088339.27547  20380135.242    20380126.934
        52.100          47.600
 -10529709.669 7 -10405646.18845  22756458.734    22756451.246
        45.000          32.800
 23  8  4 16 10 15.0000000  0  9G12G25G05G26G20G11G31G29G18
   -137924.601 5    534924.14543  24849715.266    24849714.109
        33.300          19.000
 -15581524.176 7 -12095169.40545  21990037.711    21990032.746
        45.500          34.400
 -23268564.224 8 -17224966.86147  20765621.609    20765613.535
        49.900          43.300
  -7767020.874 6  -7335115.23946  23117395.594    23117392.270
        40.400          39.000
 -17651949.186 7 -12561439.87845  21853741.734    21853733.309
        47.600          35.500
 -10559822.006 7  -7956631.26444  23677201.250    23677196.285
        43.200          28.900
   1780929.222 6  -2208295.08045  24667056.984    24667051.078
        36.700          31.300
 -19691914.600 8 -15094124.81547  20378722.180    20378713.695
        52.300          47.700
 -10571891.412 7 -10438515.05845  22748431.109    22748424.090
        44.200          32.600
 23  8  4 16 10 30.0000000  0  9G12G25G05G26G20G11G31G29G18
    -77848.872 5    581736.33643  24861148.203    24861145.523
        35.300          18.300
 -15534537.697 7 -12058556.60745  21998979.508    21998974.070
        45.400          35.500
 -23270925.367 8 -17226806.71447  20765172.102    20765164.203
        50.000          42.900
  -7800450.983 6  -7361164.63946  23111034.164    23111030.430
        39.300          38.600
 -17621953.383 7 -12538066.55545  21859448.977    21859441.547
        47.100          35.400
 -10512088.756 7  -7919436.57744  23686285.055    23686279.559
        42.700          29.200
   1807281.097 6  -2187761.20145  24672072.578    24672066.203
        36.200          30.400
 -19699237.232 8 -15099830.75047  20377329.242    20377320.523
        52.300          47.800
 -10614017.078 7 -10471340.23845  22740415.359    22740407.871
        44.800          32.400
 23  8  4 16 10 45.0000000  0  9G12G25G05G26G20G11G31G29G18
    -17766.983 6    628553.29543  24872582.984    24872579.133
        36.300          20.600
 -15487466.566 7 -12021877.84445  22007936.547    22007931.227
        44.300          34.900
 -23273126.187 8 -17228521.64147  20764753.352    20764745.160
        50.400          43.400
  -7833768.468 6  -7387126.31246  23104695.297    23104690.156
        40.200          38.200
 -17591844.444 7 -12514605.05945  21865178.516    21865170.676
        46.700          35.100
 -10464333.108 7  -7882224.44145  23695373.102    23695367.137
        42.400          30.200
   1833737.709 5  -2167145.67844  24677106.297    24677099.980
        34.600          28.800
 -19706458.079 8 -15105457.38047  20375954.742    20375946.199
        52.100          47.900
 -10656086.991 7 -10504121.98045  22732409.430    22732402.000
        44.400          31.700
 23  8  4 16 11  0.0000000  0  9G12G25G05G26G20G11G31G29G18
     42320.707 6    675374.74443  24884018.383    24884013.828
        37.200          19.900
 -15440311.071 7 -11985133.32445  22016909.477    22016904.805
        45.100          34.800
 -23275166.612 8 -17230111.59247  20764364.969    20764356.660
        50.300          43.500
  -7866973.023 6  -7412999.97346  23098375.867    23098371.254
        40.400          37.700
 -17561622.520 7 -12491055.51745  21870930.172    21870921.746
        47.100          35.700
 -10416555.053 7  -7844994.82544  23704464.398    23704458.785
        43.000          29.800
   1860298.798 5  -2146448.78344  24682161.297    24682154.512
        34.800          28.300
 -19713576.918 8 -15111004.51447  20374600.359    20374591.406
        52.700          47.900
 -10698100.989 7 -10536860.16745  22724414.008    22724406.813
        44.200          32.800
 23  8  4 16 11 15.0000000  0  9G12G25G05G26G20G11G31G29G18
    102414.245 6    722200.75943  24895453.734    24895449.063
        36.600          20.100
 -15393071.498 7 -11948323.29145  22025899.258    22025894.293
        45.700          34.600
 -23277046.322 8 -17231576.30747  20764007.383    20763999.250
        49.400          43.200
  -7900064.440 6  -7438785.49646  23092078.156    23092075.125
        40.600          38.400
 -17531287.904 8 -12467418.16645  21876703.141    21876694.246
        48.000          35.400
 -10368754.692 7  -7807747.82844  23713561.297    23713555.156
        43.500          29.700
   1886964.142 5  -2125670.62644  24687235.461    24687228.500
        34.000          27.500
 -19720593.651 8 -15116472.09347  20373264.477    20373256.227
        52.400          47.900
 -10740059.018 7 -10569554.72045  22716430.117    22716422.863
        45.200          32.400
 23  8  4 16 11 30.0000000  0  9G12G25G05G26G20G11G31G29G18
    162513.707 6    769031.36843  24906891.469    24906886.031
        37.800          20.400
 -15345747.475 7 -11911447.46945  22034905.195    22034900.172
        45.700          34.900
 -23278764.800 8 -17232915.38647  20763680.203    20763672.656
        49.800          43.800
  -7933041.661 7  -7464482.01246  23085804.070    23085798.988
        42.000          38.900
 -17500840.127 7 -12443692.62345  21882496.633    21882488.324
        47.000          35.600
 -10320931.499 7  -7770483.07444  23722661.172    23722656.324
        42.900          28.500
   1913734.053 5  -2104810.97744  24692329.977    24692322.547
        34.800          29.100
 -19727507.261 8 -15121859.29347  20371949.266    20371940.781
        52.600          47.900
 -10781960.207 7 -10602204.97345  22708456.617    22708449.480
        44.900          33.000
 23  8  4 16 11 45.0000000  0  9G12G25G05G26G20G11G31G29G18
    222618.330 6    815866.06643  24918328.711    24918323.449
        38.400          20.100
 -15298339.758 7 -11874506.42645  22043925.313    22043921.051
        45.300          34.100
 -23280322.679 8 -17234129.31547  20763383.859    20763375.902
        49.700          43.500
  -7965904.854 6  -7490089.68646  23079548.258    23079545.637
        38.800          37.300
 -17470279.887 7 -12419879.45746  21888311.914    21888304.309
        46.700          36.200
 -10273086.101 7  -7733201.00644  23731766.063    23731760.332
        42.400          28.100
   1940607.790 6  -2083870.44744  24697444.172    24697436.859
        37.100          29.800
 -19734318.066 8 -15127166.39347  20370652.875    20370644.508
        51.400          47.900
 -10823804.842 7 -10634811.17645  22700493.484    22700486.230
        43.700          31.700
 23  8  4 16 12  0.0000000  0  9G12G25G05G26G20G11G31G29G18
    282728.048 6    862704.71043  24929767.773    24929762.102
        39.000          19.600
 -15250848.571 7 -11837500.33845  22052963.359    22052958.395
        45.600          34.800
 -23281719.853 8 -17235218.01847  20763117.969    20763109.953
        50.100          43.300
  -7998653.607 6  -7515608.17046  23073317.297    23073313.270
        39.700          38.200
 -17439607.396 7 -12395978.83245  21894148.688    21894141.141
        46.600          35.900
 -10225218.534 7  -7695901.66544  23740875.469    23740869.328
        43.500          29.100
   1967585.282 6  -2062849.07543  24702576.961    24702570.469
        37.400          22.200
 -19741026.033 8 -15132393.36247  20369376.734    20369367.723
        52.600          47.800
 -10865592.727 7 -10667373.14345  22692541.734    22692534.480
        45.100          33.000
 23  8  4 16 12 15.0000000  0  9G12G25G05G26G20G11G31G29G18
    342842.652 6    909547.15143  24941206.758    24941201.496
        38.300          19.600
 -15203274.136 7 -11800429.37545  22062016.445    22062011.832
        45.200          34.600
 -23282955.935 8 -17236181.20047  20762883.023    20762874.891
        48.200          43.300
  -8031287.580 7  -7541037.23345  23067108.375    23067103.172
        42.000          34.500
 -17408822.648 7 -12371990.74345  21900006.859    21899998.609
        45.100          35.600
 -10177328.893 7  -7658585.11144  23749988.000    23749982.504
        43.200          29.300
   1994666.176 6  -2041747.05543  24707730.172    24707723.563
        36.800          20.400
 -19747631.040 8 -15137540.13347  20368119.648    20368110.930
        51.800          47.700
 -10907323.639 7 -10699890.72145  22684600.344    22684593.207
        44.900          33.500
 23  8  4 16 12 30.0000000  0  9G12G25G05G26G20G11G31G29G18
    402961.821 5    956393.17343  24952645.664    24952642.047
        35.200          19.300
 -15155616.831 7 -11763293.86445  22071085.461    22071080.613
        44.800          34.300
 -23284031.007 8 -17237018.92547  20762678.352    20762670.336
        48.200          43.400
  -8063806.480 6  -7566376.63745  23060918.883    23060915.207
        40.400          32.100
 -17377925.949 7 -12347915.41346  21905886.461    21905878.094
        46.600          36.100
 -10129417.351 7  -7621251.50744  23759105.383    23759099.711
        43.500          29.600
   2021850.255 6  -2020564.69743  24712902.703    24712896.211
        36.300          18.600
 -19754132.635 8 -15142606.29947  20366882.602    20366874.176
        52.700          47.700
 -10948997.510 7 -10732363.86245  22676670.016    22676662.410
        45.300          32.700
 23  8  4 16 12 45.0000000  0  9G12G25G05G26G20G11G31G29G18
    463085.848 5   1003242.94543  24964085.852    24964083.816
        34.300          18.600
 -15107876.484 7 -11726093.63345  22080170.477    22080164.863
        46.000          33.100
 -23284944.600 8 -17237730.82247  20762504.523    20762496.332
        49.300          43.100
  -8096209.640 6  -7591625.84144  23054752.969    23054749.059
        40.200          26.800
 -17346917.302 7 -12323752.83646  21911787.813    21911779.094
        47.000          36.500
 -10081483.667 7  -7583900.62544  23768227.008    23768221.688
        42.500          28.700
   2049137.634 5  -1999301.83443  24718096.016    24718089.172
        35.900          18.300
 -19760530.450 8 -15147591.60947  20365665.344    20365656.566
        52.700          47.900
 -10990613.770 7 -10764792.11545  22668751.258    22668743.770
        45.400          32.800
 23  8  4 16 13  0.0000000  0  9G12G25G05G26G20G11G31G29G18
    523213.646 5   1050095.69243  24975527.445    24975525.762
        34.600          18.300
 -15060054.109 7 -11688829.47845  22089270.539    22089265.398
        45.800          34.400
 -23285697.433 8 -17238317.43647  20762361.375    20762353.301
        49.400          43.300
  -8128497.392 6  -7616785.10344  23048608.828    23048605.211
        40.500          28.700
 -17315797.415 7 -12299503.57446  21917709.531    21917701.340
        47.100          36.700
 -10033528.535 6  -7546533.06644  23777352.625    23777347.246
        40.600          27.400
   2076527.487 6  -1977959.14243  24723308.836    24723301.523
        37.600          19.300
 -19766824.923 8 -15152496.39947  20364467.414    20364458.871
        52.600          47.900
 -11032172.899 7 -10797175.84445  22660842.234    22660835.332
        45.600          32.800
 23  8  4 16 13 15.0000000  0 10G12G25G05G26G20G11G31G29G18G23
    583345.171 5   1096951.30743  24986969.969    24986968.695
        34.400          19.300
 -15012150.003 7 -11651501.64245  22098386.789    22098381.648
        45.800          34.500
 -23286289.689 8 -17238778.93547  20762248.414    20762240.281
        49.900          43.200
  -8160669.437 6  -7641854.22644  23042487.094    23042482.715
        41.000          28.500
 -17284566.548 7 -12275167.85446  21923651.938    21923644.391
        46.000          36.700
  -9985552.185 6  -7509148.97444  23786481.930    23786477.434
        39.600          25.600
   2104019.379 6  -1956536.91243  24728541.617    24728533.016
        38.100          19.900
 -19773015.995 8 -15157320.62047  20363289.414    20363280.754
        52.600          47.900
 -11073674.871 7 -10829515.02445  22652945.602    22652937.762
        45.400          33.100
   -706049.94015                  25676023.555
        32.000
 23  8  4 16 13 30.0000000  0 10G12G25G05G26G20G11G31G29G18G23
    643479.509 5   1143809.14243  24998414.211    24998411.414
        35.400          20.400
 -14964164.713 7 -11614110.53345  22107517.836    22107512.633
        44.700          34.000
 -23286721.525 8 -17239115.43347  20762166.203    20762157.953
        50.100          43.700
  -8192725.790 6  -7666833.21644  23036386.133    23036382.691
        41.000          28.500
 -17253225.027 7 -12250745.91445  21929616.125    21929607.875
        45.900          35.900
  -9937554.948 6  -7471748.57244  23795616.008    23795610.219
        40.500          24.700
   2131612.767 6  -1935035.60443  24733790.977    24733783.430
        36.800          20.100
 -19779103.694 8 -15162064.28248  20362130.484    20362122.000
        52.500          48.000
 -11115119.773 7 -10861809.74345  22645057.984    22645050.613
        44.800          32.700
   -763925.38814                  25665010.789
        27.300
 23  8  4 16 13 45.0000000  0 10G12G25G05G26G20G11G31G29G18G23
    703616.776 6   1190669.25143  25009858.680    25009855.648
        37.100          20.900
 -14916098.380 7 -11576656.27045  22116664.375    22116659.172
        44.900          34.000
 -23286992.737 8 -17239326.77147  20762114.875    20762106.801
        49.800          43.100
  -8224665.979 6  -7691721.65044  23030308.227    23030304.785
        39.400          28.200
 -17221773.230 7 -12226238.04046  21935601.578    21935593.328
        46.900          36.300
  -9889536.886 6  -7434331.97144  23804754.047    23804747.789
        41.100          26.300
   2159307.570 6  -1913455.27643  24739062.078    24739054.121
        38.500          21.500
 -19785087.769 8 -15166727.20547  20360991.961    20360983.301
        52.500          47.900
 -11156507.249 7 -10894059.71845  22637182.258    22637175.121
        44.600          33.200
   -821809.65215                  25653996.813
        32.200
 23  8  4 16 14  0.0000000  0 10G12G25G05G26G20G11G31G29G18G23
    763756.613 6   1237531.36543  25021302.625    25021299.711
        36.400          19.900
 -14867951.649 7 -11539139.36245  22125826.070    22125821.457
        44.300          33.600
 -23287103.451 8 -17239413.03447  20762093.617    20762085.191
        48.900          43.400
  -8256489.974 6  -7716519.56844  23024252.273    23024248.246
        39.900          27.000
 -17190211.539 7 -12201644.51746  21941608.313    21941598.891
        47.200          36.100
  -9841498.360 6  -7396899.40444  23813895.344    23813889.906
        41.600          27.700
   2187103.336 5  -1891796.23243  24744348.492    24744344.055
        35.300          20.100
 -19790968.376 8 -15171309.50648  20359872.977    20359864.258
        53.000          48.100
 -11197837.511 7 -10926265.10445  22629317.680    22629310.602
        44.800          33.600
   -879702.882 5                  25642977.828
        31.600
 23  8  4 16 14 15.0000000  0 10G12G25G05G26G20G11G31G29G18G23
    823896.672 6   1284393.62443  25032748.133    25032744.691
        36.600          19.300
 -14819726.662 7 -11501561.47645  22135003.648    22134998.211
        45.100          34.000
 -23287055.673 8 -17239375.80347  20762102.523    20762094.625
        49.300          43.100
  -8288199.286 6  -7741228.10644  23018217.664    23018214.047
        39.900          27.300
 -17158542.052 7 -12176967.00045  21947634.352    21947625.809
        46.100          35.500
  -9793441.405 6  -7359452.48444  23823040.289    23823034.793
        41.300          27.300
   2214997.879 6  -1870060.28543  24749658.484    24749651.641
        37.300          18.600
 -19796747.097 8 -15175812.39347  20358773.242    20358764.699
        52.700          47.900
 -11239112.250 7 -10958427.23745  22621463.641    22621455.684
        45.600          33.800
   -937606.675 5                  25631961.023
        31.900
 23  8  4 16 14 30.0000000  0 10G12G25G05G26G20G11G31G29G18G23
    884040.989 6   1331259.21143  25044193.508    25044189.715
        37.100          19.600
 -14771419.416 7 -11463919.48945  22144195.844    22144191.055
        45.500          34.000
 -23286845.343 8 -17239211.90547  20762142.883    20762134.867
        48.900          43.200
  -8319789.413 6  -7765843.80144  23012207.328    23012202.949
        41.300          27.000
 -17126760.775 7 -12152202.37545  21953681.398    21953673.207
        44.900          35.600
  -9745361.805 6  -7321987.92844  23832188.008    23832184.215
        39.200          26.700
   2242995.196 6  -1848244.23343  24754986.656    24754978.992
        37.100          18.600
 -19802419.540 8 -15180232.47847  20357694.133    20357685.238
        52.900          47.900
 -11280327.024 7 -10990542.63345  22613620.805    22613613.141
        45.000          33.800
   -995516.229 5                  25620941.969
        32.600
 23  8  4 16 14 45.0000000  0 10G12G25G05G26G20G11G31G29G18G23
    944187.554 6   1378126.55243  25055639.508    25055635.305
        37.100          19.600
 -14723032.008 7 -11426215.05445  22153404.000    22153399.035
        45.200          33.500
 -23286473.945 8 -17238922.50447  20762213.883    20762205.340
        50.500          43.300
  -8351261.859 6  -7790367.76644  23006217.781    23006214.398
        41.000          28.100
 -17094869.587 7 -12127352.13345  21959749.672    21959742.301
        45.000          35.500
  -9697261.524 6  -7284507.25144  23841342.078    23841337.289
        39.000          24.500
   2271093.261 6  -1826349.67743  24760332.484    24760325.992
        36.800          18.300
 -19807987.465 8 -15184571.11648  20356634.648    20356625.695
        52.900          48.300
 -11321483.527 7 -11022612.63645  22605788.711    22605781.691
        45.300          34.200
  -1053433.242 5                  25609920.023
        33.700
 23  8  4 16 15  0.0000000  0 10G12G25G05G26G20G11G31G29G18G23
   1004335.361 6   1424994.84143  25067085.078    25067081.051
        36.300          19.000
 -14674565.597 7 -11388449.06045  22162626.867    22162622.137
        44.900          33.800
 -23285942.466 8 -17238508.36247  20762314.813    20762306.328
        50.100          43.300
  -8382617.115 7  -7814800.43444  23000252.383    23000247.063
        42.000          27.600
 -17062869.645 7 -12102417.13045  21965840.008    21965831.582
        46.000          35.900
  -9649141.532 6  -7247011.21644  23850498.383    23850494.238
        37.100          24.500
   2299290.841 6  -1804377.57243  24765699.750    24765691.734
        37.000          18.300
 -19813451.512 8 -15188828.81247  20355594.547    20355586.004
        52.300          47.900
 -11362582.467 7 -11054637.75245  22597967.469    22597960.391
        45.000          33.100
  -1111358.225 5                  25598897.391
        33.100
 23  8  4 16 15 15.0000000  0 10G12G25G05G26G20G11G31G29G18G23
   1064484.005 5   1471863.76343  25078529.500    25078526.879
        35.400          19.600
 -14626020.559 7 -11350621.78145  22171865.680    22171860.418
        46.000          34.500
 -23285251.052 8 -17237969.58647  20762446.633    20762437.797
        50.800          43.700
  -8413854.983 6  -7839141.63044  22994308.016    22994302.813
        40.300          28.100
 -17030761.307 7 -12077397.66146  21971951.016    21971942.238
        47.600          36.500
  -9601001.941 6  -7209499.89943  23859660.352    23859654.445
        39.700          22.000
   2327587.629 6  -1782328.13043  24771084.633    24771077.438
        36.900          19.900
 -19818811.566 8 -15193005.48548  20354574.547    20354566.180
        52.600          48.200
 -11403623.742 7 -11086617.95345  22590158.258    22590150.184
        44.900          33.000
  -1169290.893 5                  25587872.148
        32.000
 23  8  4 16 15 30.0000000  0 10G12G25G05G26G20G11G31G29G18G23
   1124634.154 5   1518733.84643  25089976.195    25089974.043
        35.700          19.600
 -14577396.533 7 -11312732.95945  22181116.641    22181112.730
        44.800          34.100
 -23284398.833 8 -17237305.52847  20762608.328    20762600.488
        48.700          43.300
  -8444974.572 6  -7863390.65344  22988385.250    22988381.281
        40.600          28.900
 -16998544.145 7 -12052293.38846  21978080.922    21978072.672
        46.700          36.200
  -9552842.377 6  -7171973.02343  23868823.945    23868818.508
        38.500          21.700
   2355983.984 6  -1760201.13743  24776487.992    24776480.855
        37.900          19.300
 -19824066.831 8 -15197100.50048  20353574.445    20353565.961
        51.800          48.200
 -11444606.580 7 -11118552.63145  22582359.000    22582351.160
        45.400          32.800
  -1227230.370 5                  25576845.805
        32.800
 23  8  4 16 15 45.0000000  0 10G12G25G05G26G20G11G31G29G18G23
   1184785.475 6   1565604.87743  25101422.602    25101419.922
        36.500          20.100
 -14528693.510 7 -11274782.58345  22190385.375    22190380.645
        45.300          33.800
 -23283385.309 8 -17236515.75747  20762801.563    20762793.254
        48.200          43.500
  -8475975.126 6  -7887546.92444  22982484.617    22982482.230
        39.600          27.900
 -16966217.888 7 -12027104.10445  21984231.617    21984223.953
        45.600          34.900
  -9504662.508 6  -7134430.35143  23877992.844    23877986.879
        38.800          20.100
   2384479.879 6  -1737996.56343  24781910.414    24781903.043
        37.700          18.600
 -19829216.903 8 -15201113.54148  20352594.477    20352585.992
        52.500          48.100
 -11485530.518 7 -11150441.41945  22574571.617    22574564.012
        45.800          33.200
  -1285176.037 5                  25565818.266
        31.300
 23  8  4 16 16  0.0000000  0 10G12G25G05G26G20G11G31G29G18G23
   1244936.897 5   1612475.97843  25112869.875    25112867.254
        35.500          21.100
 -14479912.805 7 -11236771.68145  22199667.984    22199663.488
        44.800          33.500
 -23282211.852 8 -17235601.37847  20763023.984    20763016.320
        49.200          43.100
  -8506857.462 6  -7911611.06744  22976609.227    22976605.199
        40.900          28.700
 -16933783.605 7 -12001830.65745  21990403.906    21990396.008
        45.400          34.600
  -9456463.511 6  -7096872.73143  23887165.016    23887158.758
        39.400          21.800
   2413074.159 6  -1715715.34943  24787351.508    24787344.547
        37.300          18.300
 -19834262.523 8 -15205045.18848  20351634.273    20351625.906
        52.300          48.000
 -11526396.387 7 -11182284.94345  22566795.461    22566787.797
        45.600          34.000
  -1343128.632 4                  25554790.031
        28.300
 23  8  4 16 16 15.0000000  0 10G12G25G05G26G20G11G31G29G18G23
   1305088.515 6   1659347.30143  25124316.547    25124314.219
        36.000          20.900
 -14431054.544 7 -11198700.35645  22208965.180    22208961.094
        44.800          34.600
 -23280878.390 8 -17234562.31047  20763278.086    20763270.012
        50.200          43.200
  -8537621.141 6  -7935582.76744  22970755.602    22970750.398
        41.800          27.700
 -16901241.907 7 -11976473.51145  21996596.547    21996588.648
        45.200          35.100
  -9408245.434 6  -7059300.26643  23896340.406    23896334.559
        38.900          22.300
   2441766.695 6  -1693357.61643  24792811.656    24792804.930
        37.300          19.000
 -19839203.549 8 -15208895.33848  20350693.938    20350685.746
        51.600          48.000
 -11567203.981 7 -11214083.06345  22559029.172    22559021.332
        44.600          33.600
  -1401087.68515                  25543762.359
        30.800
 23  8  4 16 16 30.0000000  0 10G12G25G05G26G20G11G31G29G18G23
   1365238.977 6   1706217.61743  25135762.578    25135759.957
        37.100          19.900
 -14382119.619 7 -11160569.28245  22218277.719    22218272.813
        45.000          34.100
 -23279385.394 8 -17233398.93147  20763562.344    20763554.445
        49.100          43.300
  -8568266.391 7  -7959462.17244  22964924.680    22964919.066
        42.300          28.500
 -16868593.452 7 -11951033.17345  22002809.672    22002801.480
        46.300          35.400
  -9360008.862 6  -7021713.38443  23905520.227    23905513.852
        39.300          22.500
   2470556.566 6  -1670923.92542  24798290.148    24798283.656
        38.100          17.800
 -19844040.250 8 -15212664.18847  20349773.789    20349765.012
        52.300          47.900
 -11607953.642 7 -11245836.02845  22551275.063    22551267.750
        45.400          34.200
  -1459053.392 5                  25532731.242
        33.000
 23  8  4 16 16 45.0000000  0 10G12G25G05G26G20G11G31G29G18G23
   1425389.162 6   1753087.83343  25147209.594    25147206.563
        37.000          21.500
 -14333107.463 7 -11122378.02945  22227604.195    22227599.816
        43.800          33.900
 -23277731.893 8 -17232110.48347  20763876.938    20763869.098
        49.500          43.100
  -8598792.144 6  -7983248.45744  22959114.352    22959110.910
        40.600          28.700
 -16835837.617 7 -11925509.15446  22009042.836    22009034.645
        46.300          36.100
  -9311753.160 6  -6984111.57843  23914703.109    23914696.266
        38.700          22.800
   2499444.331 6  -1648414.05043  24803786.680    24803780.070
        38.000          18.300
 -19848771.642 8 -15216350.98247  20348873.211    20348865.020
        52.000          47.900
 -11648644.427 7 -11277543.13545  22543531.805    22543524.375
        44.800          33.400
  -1517024.79315                  25521699.227
        31.200
 23  8  4 16 17  0.0000000  0 10G12G25G05G26G20G11G31G29G18G23
   1485537.993 6   1799956.90743  25158655.406    25158652.844
        38.100          20.400
 -14284019.231 7 -11084127.48145  22236945.398    22236940.375
        44.600          33.300
 -23275919.012 8 -17230697.84447  20764221.953    20764213.820
        50.300          43.300
  -8629198.778 6  -8006941.93844  22953327.992    22953325.137
        40.800          28.600
 -16802975.358 7 -11899902.20545  22015296.375    22015288.242
        46.400          35.600
  -9263479.207 6  -6946495.57044  23923888.750    23923883.137
        38.400          24.700
   2528429.005 6  -1625828.57743  24809302.734    24809295.715
        37.500          19.600
 -19853398.428 8 -15219956.27648  20347992.789    20347984.246
        51.800          48.000
 -11689276.961 7 -11309204.82945  22535799.383    22535792.070
        44.900          33.300
  -1575002.216 5                  25510667.422
        33.000
 23  8  4 16 17 15.0000000  0 10G12G25G05G26G20G11G31G29G18G23
   1545686.201 6   1846825.50943  25170102.805    25170098.836
        38.200          20.600
 -14234854.137 7 -11045817.03645  22246300.617    22246296.297
        44.300          33.200
 -23273945.394 8 -17229159.96147  20764597.586    20764589.043
        49.700          43.200
  -8659485.124 7  -8030541.70144  22947566.156    22947561.191
        42.400          28.900
 -16770005.941 7 -11874211.78545  22021570.125    22021561.875
        45.800          34.400
  -9215186.110 6  -6908864.64544  23933078.250    23933073.520
        38.600          25.300
   2557511.244 6  -1603167.15643  24814837.227    24814830.617
        37.500          20.600
 -19857919.461 8 -15223479.16548  20347132.695    20347124.152
        52.200          48.100
 -11729850.164 7 -11340820.28945  22528078.945    22528071.574
        44.800          33.400
  -1632984.46015                  25499633.492
        33.000
 23  8  4 16 17 30.0000000  0 10G12G25G05G26G20G11G31G29G18G23
   1605833.314 6   1893693.26443  25181547.758    25181543.789
        37.900          19.900
 -14185612.960 7 -11007447.33045  22255671.625    22255666.543
        44.200          33.100
 -23271811.688 8 -17227497.31447  20765003.258    20764995.535
        49.100          43.200
  -8689651.254 6  -8054047.76744  22941825.250    22941820.578
        41.700          28.700
 -16736929.995 7 -11848438.32845  22027863.727    22027855.887
        45.700          34.100
  -9166874.410 6  -6871219.24143  23942272.617    23942267.414
        39.100          23.600
   2586690.317 6  -1580430.21043  24820389.398    24820383.258
        38.100          20.600
 -19862335.011 8 -15226919.86048  20346292.180    20346283.754
        51.800          48.100
 -11770364.264 7 -11372389.70945  22520369.039    22520362.078
        45.500          34.100
  -1690971.51915                  25488600.547
        33.300
 23  8  4 16 17 45.0000000  0 10G12G25G05G26G20G11G31G29G18G23
   1665978.248 6   1940559.31243  25192994.305    25192989.340
        37.900          19.600
 -14136296.634 7 -10969019.05545  22265055.930    22265051.492
        44.900          34.600
 -23269518.173 8 -17225710.16347  20765439.703    20765431.922
        49.700          43.200
  -8719697.536 6  -8077460.42844  22936106.680    22936103.707
        41.700          28.600
 -16703748.298 7 -11822582.48545  22034178.586    22034170.043
        45.600          34.400
  -9118544.843 6  -6833559.88843  23951469.648    23951463.566
        38.800          22.900
   2615965.413 6  -1557618.51443  24825960.375    24825954.000
        37.800          19.000
 -19866645.558 8 -15230278.73248  20345472.305    20345463.469
        51.200          48.200
 -11810819.731 7 -11403913.43845  22512671.344    22512663.445
        46.300          34.400
  -1748963.726 5                  25477564.117
        32.800
 23  8  4 16 18  0.0000000  0 10G12G25G05G26G20G11G31G29G18G23
   1726121.799 6   1987424.21643  25204438.102    25204433.781
        37.100          19.000
 -14086904.479 7 -10930531.67845  22274455.094    22274450.363
        43.500          34.200
 -23267064.256 8 -17223798.01647  20765907.094    20765898.785
        49.800          43.400
  -8749622.701 6  -8100778.73244  22930411.359    22930408.973
        41.300          29.200
 -16670460.258 7 -11796643.74345  22040513.383    22040504.078
        45.700          34.200
  -9070196.720 6  -6795886.07843  23960669.930    23960663.906
        38.600          23.400
   2645337.107 6  -1534731.46243  24831549.188    24831542.754
        38.300          18.300
 -19870849.956 8 -15233554.89248  20344671.734    20344663.250
        53.000          48.100
 -11851215.521 7 -11435390.67345  22504983.875    22504976.152
        45.700          33.900
  -1806959.914 5                  25466525.773
        31.900
 23  8  4 16 18 15.0000000  0 10G12G25G05G26G20G11G31G29G18G23
   1786262.979 5   2034287.33242  25215881.141    25215879.281
        34.200          16.900
 -14037437.613 7 -10891986.09645  22283868.672    22283863.766
        44.500          33.500
 -23264450.620 8 -17221761.40647  20766404.430    20766395.770
        49.500          43.000
  -8779427.185 6  -8124002.98444  22924740.930    22924736.902
        41.800          29.600
 -16637066.830 7 -11770622.89045  22046868.242    22046859.348
        46.300          34.500
  -9021830.749 6  -6758198.37944  23969873.406    23969868.027
        38.700          24.000
   2674804.485 6  -1511769.87343  24837156.313    24837150.641
        39.400          20.400
 -19874948.774 8 -15236748.77448  20343892.000    20343883.164
        52.100          48.100
 -11891552.237 7 -11466821.88045  22497307.609    22497300.121
        45.100          33.300
  -1864960.479 5                  25455489.555
        31.300
 23  8  4 16 18 30.0000000  0 10G12G25G05G26G20G11G31G29G18G23
   1846402.452 5   2081149.15542  25227321.742    25227323.281
        31.500          15.600
 -13987895.385 7 -10853381.80445  22293296.266    22293291.828
        44.300          33.000
 -23261676.394 8 -17219599.66947  20766932.328    20766924.254
        50.100          43.200
  -8809109.874 6  -8147132.35144  22919092.867    22919088.020
        41.900          29.600
 -16603567.216 7 -11744519.33145  22053241.313    22053234.469
        45.100          33.400
  -8973446.103 6  -6720496.15844  23979080.109    23979075.203
        39.100          25.000
   2704368.085 6  -1488733.32543  24842783.438    24842776.184
        38.800          20.400
 -19878941.024 8 -15239859.62148  20343132.258    20343123.656
        52.300          48.100
 -11931828.805 7 -11498206.21745  22489643.461    22489635.738
        45.000          33.000
  -1922964.335 5                  25444451.813
        31.200
 23  8  4 16 18 45.0000000  0 10G12G25G05G26G20G11G31G29G18G23
 -10696821.13715  -7692791.40552  25238766.117    25238768.418
        31.600          16.300
 -13938279.030 7 -10814719.74245  22302737.758    22302732.793
        44.400          33.100
 -23258742.735 8 -17217313.69747  20767490.195    20767482.238
        49.400          43.300
  -8838671.354 6  -8170167.23744  22913467.133    22913463.340
        41.600          29.300
 -16569962.749 7 -11718334.06145  22059636.070    22059628.934
        44.700          33.600
  -8925043.972 6  -6682780.26944  23988291.211    23988286.008
        40.400          25.900
   2734026.499 6  -1465622.89843  24848426.609    24848420.996
        39.700          21.700
 -19882827.581 8 -15242888.11748  20342392.320    20342384.246
        52.200          48.200
 -11972046.083 7 -11529544.34745  22481990.555    22481983.066
        45.300          34.400
  -1980972.064 4                  25433414.172
        29.900
 23  8  4 16 19  0.0000000  0 10G12G25G05G26G20G11G31G29G18G23
 -10636688.221 5  -7645934.80542  25250208.695    25250211.465
        30.800          14.800
 -13888589.258 7 -10776000.47045  22312193.359    22312188.570
        43.900          33.200
 -23255649.883 8 -17214903.68647  20768079.227    20768070.918
        50.200          43.200
  -8868111.799 6  -8193107.84144  22907864.719    22907860.340
        41.300          28.100
 -16536253.938 7 -11692067.49045  22066051.711    22066043.520
        44.800          33.000
  -8876624.790 6  -6645051.09844  23997504.703    23997500.266
        40.600          27.200
   2763779.384 6  -1442438.87543  24854088.898    24854082.289
        39.200          22.600
 -19886608.541 8 -15245834.32748  20341673.336    20341664.852
        52.200          48.000
 -12012204.272 7 -11560836.43745  22474349.195    22474341.531
        45.000          34.400
  -2038983.695 5                  25422374.313
        31.200
